nomInstallation,codeEICResourceObject,codeINSEECommune,Latitude,Longitude,commune,codeDepartement,departement,codeRegion,region,dateMiseEnService,filiere,puisMaxRac,nbGroupes
CENTRALE EOLIENNE DES COTEAUX 3,17W000000930192I,10015,48.42239773,4.106776155,Aubeterre,10,Aube,44,Grand-Est,2019-12-06 00:00,Eolien,10350,3
PARC EOLIEN DE COULANGES 1,17W000000932956H,18036,47.16404492,2.112356896,Brinay,18,Cher,24,Centre-Val de Loire,2019-11-09 00:00,Eolien,10800,3
PARC EOLIEN DE COULANGES 2,17W0000009345995,18036,47.16404492,2.112356896,Brinay,18,Cher,24,Centre-Val de Loire,2019-11-09 00:00,Eolien,10800,3
P.E. DE BASSE THIERACHE NORD N??2,17W000000910364R,2569,50.02290893,3.652738937,Oisy,2,Aisne,32,Hauts-de-France,2019-11-02 00:00,Eolien,6900,2
FERME EOLIENNE DU DUCANDEAU,17W000000934461Y,55040,48.96723837,5.212667887,Beausite,55,Meuse,44,Grand-Est,2019-10-09 00:00,Eolien,16800,5
PARC EOLIEN LES CAVES SAS,17W000000915818Q,53073,47.80280193,-1.124836884,Congrier,53,Mayenne,52,Pays de la Loire,2019-10-04 00:00,Eolien,11500,5
PARC EOLIEN D'AZERABLES,17W000000934775B,23015,46.35245858,1.474922726,Azerables,23,Creuse,75,Nouvelle-Aquitaine,2019-09-24 00:00,Eolien,13200,6
ENGIE GREEN PAYS HAUT,17W0000009336054,54491,49.35192716,5.92745145,Sancy,54,Meurthe-et-Moselle,44,Grand-Est,2019-09-20 00:00,Eolien,4000,2
PARCS EOLIENS 2019,17W0000009342429,51127,48.63373387,3.817458211,La Chapelle-Lasson,51,Marne,44,Grand-Est,2019-09-19 00:00,Eolien,10800,3
SEPE HAUT DE CORREAU,17W000000933822X,2552,49.85540022,3.468312986,Neuvillette,2,Aisne,32,Hauts-de-France,2019-09-18 00:00,Eolien,9900,3
Confidentiel,17W000000932934R,2552,49.85540022,3.468312986,Neuvillette,2,Aisne,32,Hauts-de-France,2019-09-18 00:00,Eolien,10800,3
SEPE CHAMPS A GELAINE,17W000000932914X,2503,49.85149975,3.526735684,Mont-d'Origny,2,Aisne,32,Hauts-de-France,2019-09-18 00:00,Eolien,10800,3
IEL EXPLOITATION 40,17W000000913801G,22093,48.46844048,-2.49534816,Lamballe,22,C??tes-d'Armor,53,Bretagne,2019-09-05 00:00,Eolien,4700,2
PARC EOLIEN LES PERSILLATS 2,17W000000915325C,18134,47.13464442,2.064036578,Lury-sur-Arnon,18,Cher,24,Centre-Val de Loire,2019-09-04 00:00,Eolien,9300,4
PARC EOLIEN D'ORMOY,17W000000503745Y,28289,48.62435461,1.471770785,Ormoy,28,Eure-et-Loir,24,Centre-Val de Loire,2019-09-01 00:00,Eolien,6000,3
PARCS EOLIENS 2019,17W000000927621T,51127,48.63373387,3.817458211,La Chapelle-Lasson,51,Marne,44,Grand-Est,2019-08-16 00:00,Eolien,10800,3
PARC EOLIEN DU FOUZON,17W0000009281071,18167,47.13364543,1.912318868,Nohant-en-Gra??ay,18,Cher,24,Centre-Val de Loire,2019-08-13 00:00,Eolien,9000,3
ENGIE GREEN POULDERGAT,17W000000502766V,29224,48.04068324,-4.326433545,Pouldergat,29,Finist??re,53,Bretagne,2019-08-01 00:00,Eolien,6900,3
EOLE PIERREFITTE ES BOIS,17W000000925186V,45251,47.51095347,2.692077501,Pierrefitte-??s-Bois,45,Loiret,24,Centre-Val de Loire,2019-07-25 00:00,Eolien,8400,4
PARC EOLIEN DES SOURCES DU MISTRAL 2,17W0000005044802,21163,47.55841312,5.285622662,Chazeuil,21,C??te-d'Or,27,Bourgogne-Franche-Comt??,2019-07-01 00:00,Eolien,8000,4
PARC EOLIEN DES SOURCES DU MISTRAL 1,17W000000501913C,21536,47.58420998,5.321326379,Sacquenay,21,C??te-d'Or,27,Bourgogne-Franche-Comt??,2019-07-01 00:00,Eolien,10000,5
Mont de Treme 1 le chapeau,17W000000931558Y,80822,49.70578387,2.643970792,Warsy,80,Somme,32,Hauts-de-France,2019-06-28 00:00,Eolien,13800,
Mont de Treme 2 le fief brunelle,17W000000931310X,80395,49.69781317,2.66525578,Guerbigny,80,Somme,32,Hauts-de-France,2019-06-28 00:00,Eolien,17000,
PARC EOLIEN DE CHAMPCOURT 2,17W000000927377E,2468,49.74513935,3.76520545,Marle,2,Aisne,32,Hauts-de-France,2019-06-24 00:00,Eolien,7050,3
PARC EOLIEN DE CHAMPCOURT,17W000000923787F,2468,49.74513935,3.76520545,Marle,2,Aisne,32,Hauts-de-France,2019-06-24 00:00,Eolien,7050,3
CENTRALE EOLIENNE LES HAUTS CHEMINS,17W000000924695F,88162,48.17522036,6.058288586,Esley,88,Vosges,44,Grand-Est,2019-06-24 00:00,Eolien,14000,6
CENTRALE EOLIENNE DES COTEAUX 2,17W000000927280T,10149,48.39656415,4.108674235,Feuges,10,Aube,44,Grand-Est,2019-06-20 00:00,Eolien,10350,3
PARC EOLIEN DES LONGS CHAMPS 2,17W000000930799H,76266,50.03486877,1.364822817,Flocques,76,Seine-Maritime,28,Normandie,2019-06-17 00:00,Eolien,4400,2
PE CHEMIN AVESNES IWUY,17W000000930723D,59322,50.23359842,3.336233475,Iwuy,59,Nord,32,Hauts-de-France,2019-05-28 00:00,Eolien,3600,1
ENERGIE AVESNES IWUY,17W0000009251393,59322,50.23359842,3.336233475,Iwuy,59,Nord,32,Hauts-de-France,2019-05-28 00:00,Eolien,7200,2
CENTRALE EOLIENNE DES COTEAUX 1,17W000000930630K,10352,48.35669053,4.071987379,Sainte-Maure,10,Aube,44,Grand-Est,2019-05-28 00:00,Eolien,10350,3
PARC EOLIEN DE GUEHENNO,17W000000913838U,56071,47.89224301,-2.651415442,Gu??henno,56,Morbihan,53,Bretagne,2019-05-28 00:00,Eolien,12000,6
ENERGIE AVESNES - IWUY,17W0000009253078,59322,50.23359842,3.336233475,Iwuy,59,Nord,32,Hauts-de-France,2019-05-28 00:00,Eolien,13800,4
ENERGIE AVESNES - AVESNES LE SEC,17W000000918248Q,59038,50.24839887,3.371454609,Avesnes-le-Sec,59,Nord,32,Hauts-de-France,2019-05-27 00:00,Eolien,13800,4
COL DE FERRIERE - RAHON 2,17W000000916765G,25595,47.34764843,6.590540119,Vellerot-l??s-Belvoir,25,Doubs,27,Bourgogne-Franche-Comt??,2019-05-22 00:00,Eolien,9690,3
SEPE DE LA BUTTE DE SOIGNY,17W000000915061K,51070,48.84685317,3.641771216,Boissy-le-Repos,51,Marne,44,Grand-Est,2019-05-21 00:00,Eolien,2000,1
SEPE DE LA BUTTE DE SOIGNY,17W000000914205R,51264,48.81040992,3.602679656,Le Gault-Soigny,51,Marne,44,Grand-Est,2019-05-21 00:00,Eolien,12000,6
PARC EOLIEN LES LANDES 1,17W000000915709V,87163,46.15324765,0.873311624,Saint-Martial-sur-Isop,87,Haute-Vienne,75,Nouvelle-Aquitaine,2019-05-15 00:00,Eolien,9000,3
CEMAZ,17W0000009334256,2169,49.76185031,3.703125089,Ch??tillon-l??s-Sons,2,Aisne,32,Hauts-de-France,2019-05-09 00:00,Eolien,12800,4
PARC EOLIEN LES PERSILLATS 1,17W000000917812S,18134,47.13464442,2.064036578,Lury-sur-Arnon,18,Cher,24,Centre-Val de Loire,2019-04-29 00:00,Eolien,11700,5
COL DE FERRIERE - RAHON 1,17W000000916713Z,25595,47.34764843,6.590540119,Vellerot-l??s-Belvoir,25,Doubs,27,Bourgogne-Franche-Comt??,2019-04-24 00:00,Eolien,9690,3
PARC EOLIEN LABRUGUIERE  P 1,17W000000916684G,81120,43.50900503,2.266620075,Labrugui??re,81,Tarn,76,Occitanie,2019-04-18 00:00,Eolien,11500,40
PARC EOLIEN LABRUGUIERE  P 2,17W000000917554O,81120,43.50900503,2.266620075,Labrugui??re,81,Tarn,76,Occitanie,2019-04-18 00:00,Eolien,11500,5
PARC EOLIEN DU MONT DE MAISNIL,17W000000913944V,62053,50.57869529,2.126733745,Audincthun,62,Pas-de-Calais,32,Hauts-de-France,2019-04-18 00:00,Eolien,12600,6
PARC EOLIEN DE LA CREMIERE,17W0000009156412,62673,50.17659373,2.985180275,Qu??ant,62,Pas-de-Calais,32,Hauts-de-France,2019-04-18 00:00,Eolien,13200,4
PARC EOLIEN DE ARBRE CHAUD,17W0000009142845,62469,50.17455999,3.039443202,Inchy-en-Artois,62,Pas-de-Calais,32,Hauts-de-France,2019-04-18 00:00,Eolien,13200,4
GARRIE02 - ADP 02 DE LA FERME EOLIENNE DE GARRIGOU (LA ROCAILLE),17W000000935395G,34107,43.5926355,2.797055311,Fraisse-sur-Agout,34,H??rault,76,Occitanie,2019-04-16 00:00,Eolien,14100,6
GARRIE01 - ADP 01 DE LA FERME EOLIENNE DE GARRIGOU (LA PLANESIE),17W000000935396E,34107,43.5926355,2.797055311,Fraisse-sur-Agout,34,H??rault,76,Occitanie,2019-04-16 00:00,Eolien,16450,7
PARC EOLIEN LES LANDES 2,17W000000927148T,87163,46.15324765,0.873311624,Saint-Martial-sur-Isop,87,Haute-Vienne,75,Nouvelle-Aquitaine,2019-04-07 00:00,Eolien,9000,3
CENTRALE EOLIENNE DES SOUTETS,17W000000910658A,12208,43.96566945,2.866531256,Saint-Affrique,12,Aveyron,76,Occitanie,2019-04-02 00:00,Eolien,13800,48
FERME EOLIENNE D'ANTEZANT LA CHAPELLE,17W000000914014Y,17013,45.99506824,-0.482871744,Antezant-la-Chapelle,17,Charente-Maritime,75,Nouvelle-Aquitaine,2019-03-29 00:00,Eolien,4000,2
FERME EOLIENNE ANTEZANT LA CHAPELLE,17W000000914982I,17013,45.99506824,-0.482871744,Antezant-la-Chapelle,17,Charente-Maritime,75,Nouvelle-Aquitaine,2019-03-29 00:00,Eolien,12000,6
PARC EOLIEN DE SAINT AMBROIX,17W0000009123022,18198,46.93555177,2.124014781,Saint-Ambroix,18,Cher,24,Centre-Val de Loire,2019-03-28 00:00,Eolien,12000,4
PARC DE GRAND RULLECOURT OUEST 1,17W000000912268D,62804,50.23940927,2.434727124,Sus-Saint-L??ger,62,Pas-de-Calais,32,Hauts-de-France,2019-03-26 00:00,Eolien,4100,2
EOLIENNES DE LA CHAPPELLE AU MANS,17W000000912430U,71088,46.62902816,3.977526722,La Chapelle-au-Mans,71,Sa??ne-et-Loire,27,Bourgogne-Franche-Comt??,2019-03-25 00:00,Eolien,12000,4
PARC EOLIEN DES 3 COMMUNES,17W000000913254J,62733,50.12137054,2.598672182,Sailly-au-Bois,62,Pas-de-Calais,32,Hauts-de-France,2019-03-13 00:00,Eolien,6900,4
CENTRALE EOLIENNE DES COTEAUX 4,17W0000009247221,10256,48.44579577,4.14056972,Montsuzain,10,Aube,44,Grand-Est,2019-03-07 00:00,Eolien,6900,2
PARC EOLIEN DU CATESIS,17W000000926419T,59055,50.0816022,3.59590423,Bazuel,59,Nord,32,Hauts-de-France,2019-03-06 00:00,Eolien,10000,5
EOLE JASSEINES,17W000000914139E,10175,48.50901507,4.394003924,Jasseines,10,Aube,44,Grand-Est,2019-03-05 00:00,Eolien,13200,6
CENTRALE EOLIENNE DE JONCELS (CEJON),17W000000916478J,34121,43.76621939,3.183100968,Joncels,34,H??rault,76,Occitanie,2019-03-04 00:00,Eolien,6300,7
PARC EOLIEN DE BOMY,17W0000005043393,62153,50.56937763,2.224078294,Bomy,62,Pas-de-Calais,32,Hauts-de-France,2019-03-01 00:00,Eolien,7050,3
ECHAUFFOUR ENERGIES,17W000000909387D,61150,48.73225065,0.395097738,??chauffour,61,Orne,28,Normandie,2019-02-28 00:00,Eolien,10000,5
SEPE DE PLEMY,17W0000009112233,22184,48.3378874,-2.676391703,Pl??my,22,C??tes-d'Armor,53,Bretagne,2019-02-27 00:00,Eolien,9300,6
PRODHTA (SICAE) - PROJET LES HAUTS PR??S LA BOUVRESSE 12MW,17W000000932915V,60471,49.57743433,3.007998062,Noyon,60,Oise,32,Hauts-de-France,2019-02-26 00:00,Eolien,12000,
EWZ PARC EOLIEN DE GRAINCOURT,17W000000910656E,62384,50.14247948,3.097060847,Graincourt-l??s-Havrincourt,62,Pas-de-Calais,32,Hauts-de-France,2019-02-21 00:00,Eolien,12000,4
PARC EOLIEN DE PAUDY,17W000000913161Q,36152,47.03466819,1.920295122,Paudy,36,Indre,24,Centre-Val de Loire,2019-02-21 00:00,Eolien,15000,5
PARC EOLIEN DE VIHIERSOIS 1,17W000000504569N,49310,47.08925026,-0.541920339,Saint-Paul-du-Bois,49,Maine-et-Loire,52,Pays de la Loire,2019-01-24 00:00,Eolien,7200,3
PARC EOLIEN NORDEX LIV,17W000000504627Z,49310,47.08925026,-0.541920339,Saint-Paul-du-Bois,49,Maine-et-Loire,52,Pays de la Loire,2019-01-24 00:00,Eolien,7200,3
Confidentiel,17W000000931017V,86068,46.20519353,0.158137798,Chaunay,86,Vienne,75,Nouvelle-Aquitaine,2019-01-18 00:00,Eolien,4000,2
TRAVERSAY,17W000000930966O,86068,46.20519353,0.158137798,Chaunay,86,Vienne,75,Nouvelle-Aquitaine,2019-01-18 00:00,Eolien,6000,3
PARC EOLIEN DE VIHIERSOIS 3,17W000000502782X,49310,47.08925026,-0.541920339,Saint-Paul-du-Bois,49,Maine-et-Loire,52,Pays de la Loire,2019-01-17 00:00,Eolien,7200,3
PARC EOLIEN DES USEROLES 2,17W000000502801I,21490,47.56998369,4.664389284,Poiseul-la-Ville-et-Laperri??re,21,C??te-d'Or,27,Bourgogne-Franche-Comt??,2019-01-14 00:00,Eolien,9600,4
PARC EOLIEN DES USEROLES 1,17W0000005037245,21490,47.56998369,4.664389284,Poiseul-la-Ville-et-Laperri??re,21,C??te-d'Or,27,Bourgogne-Franche-Comt??,2019-01-14 00:00,Eolien,9600,4
PARC EOLIEN D'ANGERVILLE 2,17W000000926187O,91016,48.30956277,2.006191123,Angerville,91,Essonne,11,Ile-de-France,2019-01-07 00:00,Eolien,8800,4
PARC EOLIEN D'ANGERVILLE 1,17W000000926295L,91016,48.30956277,2.006191123,Angerville,91,Essonne,11,Ile-de-France,2019-01-07 00:00,Eolien,11000,5
FERME EOLIENNE DE BENET 2,17W000000928109Y,85020,46.36887321,-0.613959919,Benet,85,Vend??e,52,Pays de la Loire,2019-01-06 00:00,Eolien,17000,5
TAIL5E06 - ADP 06 DE LA FERME EOLIENNE DES TAILLADES (Parc Eolien des Taillades Sud),17W000000923224M,7136,44.62072588,3.919338192,Laveyrune,7,Ard??che,84,Auvergne-Rh??ne-Alpes,2019-01-06 00:00,Eolien,27450,9
PARC EOLIEN DES TOURNEVENTS DU COS 2,17W0000004959804,2246,49.70310091,3.154244989,Cugny,2,Aisne,32,Hauts-de-France,2019-01-02 00:00,Eolien,12000,5
FERME EOLIENNE LAUNSTROFF,17W000000910657C,57388,49.4349333,6.500652302,Launstroff,57,Moselle,44,Grand-Est,2019-01-01 00:00,Eolien,10000,4
PARC EOLIEN DE WALDWISSE,17W000000498873R,57740,49.41435327,6.522581395,Waldwisse,57,Moselle,44,Grand-Est,2018-12-28 00:00,Eolien,10000,4
GUILLEVILLE E1 E2,17W000000502758U,28189,48.22188692,1.802479969,Guilleville,28,Eure-et-Loir,24,Centre-Val de Loire,2018-12-21 00:00,Eolien,6900,2
GUILLEVILLE E3 E4 E5,17W0000005037083,28189,48.22188692,1.802479969,Guilleville,28,Eure-et-Loir,24,Centre-Val de Loire,2018-12-21 00:00,Eolien,10800,3
PARC EOLIEN DE GAILLEFONTAINE,17W000000499873M,76295,49.65663431,1.626749227,Gaillefontaine,76,Seine-Maritime,28,Normandie,2018-12-20 00:00,Eolien,11750,5
CEPE DE ROSIERES - TRANCHE OUEST,17W000000499071L,55358,48.67854632,5.39088583,Chanteraine,55,Meuse,44,Grand-Est,2018-12-19 00:00,Eolien,6600,3
EOLE COTE DU MOULIN PDL 1,17W000000499306K,8476,49.50430279,4.076652193,Villers-devant-le-Thour,8,Ardennes,44,Grand-Est,2018-12-19 00:00,Eolien,9700,3
PE DE BASSE THIERACHE NORD 1,17W000000499871Q,2569,50.02290893,3.652738937,Oisy,2,Aisne,32,Hauts-de-France,2018-12-19 00:00,Eolien,13200,4
EOLE COTE DU MOULIN PDL 2,17W000000499859G,8476,49.50430279,4.076652193,Villers-devant-le-Thour,8,Ardennes,44,Grand-Est,2018-12-19 00:00,Eolien,13300,4
CENTRALE EOLIENNE AUXOIS SUD,17W000000498891P,21128,47.27318491,4.477324232,Chailly-sur-Arman??on,21,C??te-d'Or,27,Bourgogne-Franche-Comt??,2018-12-19 00:00,Eolien,16000,8
FERME EOLIENNE DE QUELAINES,17W000000498886I,53260,47.88311987,-0.854685551,Simpl??,53,Mayenne,52,Pays de la Loire,2018-12-17 00:00,Eolien,7050,3
Confidentiel,17W000000500810R,62053,50.57869529,2.126733745,Audincthun,62,Pas-de-Calais,32,Hauts-de-France,2018-12-13 00:00,Eolien,3300,1
ENERTRAG SANTERRE III DE MOULIN WABLE,17W000000498870X,80359,49.74082777,2.779425832,Fresnoy-l??s-Roye,80,Somme,32,Hauts-de-France,2018-12-13 00:00,Eolien,7050,3
Confidentiel,17W000000499875I,62271,50.62699738,2.169289202,Dohem,62,Pas-de-Calais,32,Hauts-de-France,2018-12-13 00:00,Eolien,9900,3
CABALAS OUEST (CAB B),17W000000908543U,34121,43.76621939,3.183100968,Joncels,34,H??rault,76,Occitanie,2018-12-12 00:00,Eolien,9200,36
PARC EOLIEN DE LA MUTTE,17W000000499879A,2403,49.8255554,3.6039999,Landifay-et-Bertaignemont,2,Aisne,32,Hauts-de-France,2018-12-12 00:00,Eolien,13200,6
EOLIENNES DE THIEULLOY 1,17W000000492352B,80754,49.82025948,1.94419558,Thieulloy-l'Abbaye,80,Somme,32,Hauts-de-France,2018-12-10 00:00,Eolien,9000,3
EOLIENNES DE THIEULLOY 2,17W0000004952326,80754,49.82025948,1.94419558,Thieulloy-l'Abbaye,80,Somme,32,Hauts-de-France,2018-12-10 00:00,Eolien,12000,4
PARC EOLIEN DU VALBIN (VALBIN 2),17W000000476161A,10055,48.14126288,4.362428285,Bourguignons,10,Aube,44,Grand-Est,2018-12-07 00:00,Eolien,9600,4
PARC EOLIEN DE LA BRUYERE,17W000000476286R,11045,42.99576368,2.161465987,Bouri??ge,11,Aude,76,Occitanie,2018-12-06 00:00,Eolien,2340,1
PARC EOLIEN DE LA BRUYERE - LE PELEDIS,17W000000476034H,11394,43.02009478,2.169589239,Tourreilles,11,Aude,76,Occitanie,2018-12-06 00:00,Eolien,11700,5
CEPE DE ROSIERES - TRANCHE EST,17W000000504487P,55358,48.67854632,5.39088583,Chanteraine,55,Meuse,44,Grand-Est,2018-11-30 00:00,Eolien,11000,5
PARC EOLIEN DE BOURCQ-CONTREUVE,17W000000497251T,8077,49.38222186,4.617992795,Bourcq,8,Ardennes,44,Grand-Est,2018-11-29 00:00,Eolien,6000,2
MONT EQUOI,17W000000498495X,10352,48.35669053,4.071987379,Sainte-Maure,10,Aube,44,Grand-Est,2018-11-23 00:00,Eolien,6400,2
ENGIE GREEN LES MONTS 2-CHAMPS TORTUS,17W000000498016Y,10256,48.44579577,4.14056972,Montsuzain,10,Aube,44,Grand-Est,2018-11-23 00:00,Eolien,9600,3
PARC EOLIEN - LES BUISSONS SUD,17W000000498257C,8161,49.2945449,5.022220227,Exermont,8,Ardennes,44,Grand-Est,2018-11-22 00:00,Eolien,7200,3
FERME EOLIENNE DE CHANVEAUX,17W000000495950D,49248,47.7629345,-1.193001898,Ombr??e d'Anjou,49,Maine-et-Loire,52,Pays de la Loire,2018-11-22 00:00,Eolien,11500,5
PARC EOLIEN DES SOURCES DE L'ANCRE,17W000000496543L,80549,50.1005697,2.727665136,Miraumont,80,Somme,32,Hauts-de-France,2018-11-21 00:00,Eolien,9900,3
PARC EOLIEN DES SOURCES DE L'ANCRE 2,17W000000497623I,80549,50.1005697,2.727665136,Miraumont,80,Somme,32,Hauts-de-France,2018-11-21 00:00,Eolien,13200,4
JUSTIEA3 - ADP A3 DE LA FERME EOLIENNE DE JUSTICE (LA) (PARC EOLIEN DE MOULIN D EMANVILLE 2),17W000000495851F,28004,48.33163423,1.652004132,Allonnes,28,Eure-et-Loir,24,Centre-Val de Loire,2018-11-20 00:00,Eolien,6600,2
ENETRAG AISNE VII SAS DE GOUDELENCOURT,17W0000004969338,2350,49.67832968,3.851627403,Goudelancourt-l??s-Pierrepont,2,Aisne,32,Hauts-de-France,2018-11-20 00:00,Eolien,9600,4
FERME EOLIENNE DE CHAPPES & REMAUCOURT,17W000000498445B,8356,49.60121284,4.232091278,Remaucourt,8,Ardennes,44,Grand-Est,2018-11-20 00:00,Eolien,13800,6
PARC EOLIEN DE POUGNY 1,17W000000496075S,58213,47.39401569,3.023974048,Pougny,58,Ni??vre,27,Bourgogne-Franche-Comt??,2018-11-19 00:00,Eolien,9400,4
PARC EOLIEN DE POUGNY 2,17W0000004967807,58213,47.39401569,3.023974048,Pougny,58,Ni??vre,27,Bourgogne-Franche-Comt??,2018-11-19 00:00,Eolien,11750,5
PARC EOLIEN DE QUINCY LE VICOMTE,17W0000004970146,21518,47.61746902,4.239732847,Quincy-le-Vicomte,21,C??te-d'Or,27,Bourgogne-Franche-Comt??,2018-11-15 00:00,Eolien,6600,3
PARC EOLIEN DE QUINCY LE VICOMTE,17W000000495969T,21518,47.61746902,4.239732847,Quincy-le-Vicomte,21,C??te-d'Or,27,Bourgogne-Franche-Comt??,2018-11-15 00:00,Eolien,8800,4
PARC DE L'ARGILLIERE N??2,17W0000004959626,80681,49.76785191,2.417037139,Rouvrel,80,Somme,32,Hauts-de-France,2018-11-15 00:00,Eolien,12800,4
PARC DE L'ARGILLIERE N??1,17W000000497791Y,80246,49.79530231,2.401349417,Dommartin,80,Somme,32,Hauts-de-France,2018-11-15 00:00,Eolien,12800,4
BORALEX LE PELON SAS,17W000000497353L,79307,46.12239132,0.111211624,Sauz??-Vaussais,79,Deux-S??vres,75,Nouvelle-Aquitaine,2018-11-14 00:00,Eolien,10000,5
FERME EOLIENNE EST,17W000000919446H,60232,49.58909366,2.513153984,Ferri??res,60,Oise,32,Hauts-de-France,2018-11-13 00:00,Eolien,9200,4
ENGIE GREEN LES MONTS 2-LA MONTAGNE A,17W000000498399T,10015,48.42239773,4.106776155,Aubeterre,10,Aube,44,Grand-Est,2018-11-13 00:00,Eolien,9600,3
ENGIE GREEN LES MONTS 2-LA MONTAGNE B,17W000000497868P,10149,48.39656415,4.108674235,Feuges,10,Aube,44,Grand-Est,2018-11-13 00:00,Eolien,9600,3
SEPE SACHIN,17W000000921904A,60232,49.58909366,2.513153984,Ferri??res,60,Oise,32,Hauts-de-France,2018-11-13 00:00,Eolien,11500,5
FERME EOLIENNE NORD,17W0000009226518,60232,49.58909366,2.513153984,Ferri??res,60,Oise,32,Hauts-de-France,2018-11-13 00:00,Eolien,11500,5
Confidentiel,17W0000004959189,2004,49.71665736,3.960432118,Agnicourt-et-S??chelles,2,Aisne,32,Hauts-de-France,2018-11-13 00:00,Eolien,12000,4
"""S.E.E.O.M """"PARC EOLIEN ORVILLIERS II""""""",17W000000497644A,10274,48.43876953,3.822491313,Orvilliers-Saint-Julien,10,Aube,44,Grand-Est,2018-11-13 00:00,Eolien,13800,6
MET LES GRANDS BOIS,17W000000499592U,2689,49.7138801,3.876123534,Saint-Pierremont,2,Aisne,32,Hauts-de-France,2018-11-12 00:00,Eolien,8200,4
PARC EOLIEN DE LA VALLEE DE TORFOU,17W000000500710V,36199,47.0110072,1.995440562,Sainte-Lizaigne,36,Indre,24,Centre-Val de Loire,2018-11-12 00:00,Eolien,8800,4
PARC EOLIEN DE LA VALLEE DE TORFOU,17W0000005007591,36199,47.0110072,1.995440562,Sainte-Lizaigne,36,Indre,24,Centre-Val de Loire,2018-11-12 00:00,Eolien,8800,4
FERME EOL DES BUISSONS,17W000000498871V,2057,49.99656086,3.329708425,Beaurevoir,2,Aisne,32,Hauts-de-France,2018-11-12 00:00,Eolien,13800,4
PARC EOLIEN DE SEMIDE,17W000000492300U,8410,49.3291026,4.576429979,Semide,8,Ardennes,44,Grand-Est,2018-11-10 00:00,Eolien,16000,5
confidentiel,17W000000920695Z,70572,47.81201549,5.757975167,Vitrey-sur-Mance,70,Haute-Sa??ne,27,Bourgogne-Franche-Comt??,2018-11-06 00:00,Eolien,12000,
SEPE  BOIS DES CORPS,17W0000004975826,57096,49.38273995,5.952097117,Boulange,57,Moselle,44,Grand-Est,2018-10-30 00:00,Eolien,4000,2
PARC EOLIEN SIOULET CHAVANON SUD,17W000000495922I,63053,45.70075182,2.654399238,Briffons,63,Puy-de-D??me,84,Auvergne-Rh??ne-Alpes,2018-10-30 00:00,Eolien,4800,6
PARC EOLIEN CUN GRAND,17W000000497788N,12039,43.76496251,2.94838918,Brusque,12,Aveyron,76,Occitanie,2018-10-30 00:00,Eolien,9000,33
PARC EOLIEN DE FOURCRANDS,17W000000497849T,12039,43.76496251,2.94838918,Brusque,12,Aveyron,76,Occitanie,2018-10-30 00:00,Eolien,12000,44
CHAMP DES MOULINS,17W000000919314Y,86068,46.20519353,0.158137798,Chaunay,86,Vienne,75,Nouvelle-Aquitaine,2018-10-29 00:00,Eolien,8000,4
CARREAU MANCEAU N??4,17W000000494970C,2097,49.6264862,3.956447719,Boncourt,2,Aisne,32,Hauts-de-France,2018-10-25 00:00,Eolien,4700,10
LES VENTS DE RANES 2,17W000000497209S,61344,48.64366757,-0.217658804,R??nes,61,Orne,28,Normandie,2018-10-19 00:00,Eolien,10250,5
LES VENTS DE RANES 1,17W0000004973858,61390,48.63079488,-0.26545918,Saint-Georges-d'Annebecq,61,Orne,28,Normandie,2018-10-19 00:00,Eolien,12300,6
Confidentiel,17W000000490765X,2004,49.71665736,3.960432118,Agnicourt-et-S??chelles,2,Aisne,32,Hauts-de-France,2018-10-17 00:00,Eolien,12000,4
ENERTRAG AISNE VII GOUDELENCOURT 2,17W0000004923482,2350,49.67832968,3.851627403,Goudelancourt-l??s-Pierrepont,2,Aisne,32,Hauts-de-France,2018-10-16 00:00,Eolien,7200,3
PARC EOLIEN DE FINS 2,17W000000499156D,80312,50.04203647,3.042210575,Fins,80,Somme,32,Hauts-de-France,2018-10-12 00:00,Eolien,12000,4
PARC EOLIEN HEUDICOURT SOREL 1,17W0000004994901,80438,50.02704186,3.090228446,Heudicourt,80,Somme,32,Hauts-de-France,2018-10-12 00:00,Eolien,12000,4
PARC EOLIEN DE HEUDICOURT SOREL 2,17W000000499685N,80438,50.02704186,3.090228446,Heudicourt,80,Somme,32,Hauts-de-France,2018-10-12 00:00,Eolien,12000,1
PARC EOLIEN DE HEUDICOURT SOREL 3,17W0000004997218,80737,50.02521927,3.052480434,Sorel,80,Somme,32,Hauts-de-France,2018-10-12 00:00,Eolien,12000,4
PARC EOLIEN DE FINS 1,17W0000004997404,80312,50.04203647,3.042210575,Fins,80,Somme,32,Hauts-de-France,2018-10-12 00:00,Eolien,12000,4
PARC EOLIEN DE FLAMETS,17W000000476940N,76042,49.75777905,1.574682181,Auvilliers,76,Seine-Maritime,28,Normandie,2018-10-08 00:00,Eolien,10000,5
EOL ANDIGNY 8,17W000000461193S,2683,50.04400833,3.554863344,Saint-Martin-Rivi??re,2,Aisne,32,Hauts-de-France,2018-10-05 00:00,Eolien,3000,1
CENTRALE EOLIENNE DU FENOUILLEDES T 2,17W000000490768R,66169,42.7767967,2.535651162,Saint-Arnac,66,Pyr??n??es-Orientales,76,Occitanie,2018-09-26 00:00,Eolien,11750,5
IEL EXPLOITATION 29,17W0000004946008,85306,46.45194087,-0.706316599,Xanton-Chassenon,85,Vend??e,52,Pays de la Loire,2018-09-21 00:00,Eolien,6000,3
TEILLAY ENERGIES,17W000000490764Z,35332,47.80779253,-1.522313071,Teillay,35,Ille-et-Vilaine,53,Bretagne,2018-09-21 00:00,Eolien,8000,4
FERME EOL DES BUISSONS-JEU DU TROU,17W0000004923628,2057,49.99656086,3.329708425,Beaurevoir,2,Aisne,32,Hauts-de-France,2018-09-20 00:00,Eolien,10350,3
IEL EXPLOITATION 28,17W000000491363B,85162,46.42472699,-0.665995249,Nieul-sur-l'Autise,85,Vend??e,52,Pays de la Loire,2018-09-20 00:00,Eolien,16000,8
ECOLE CENTRALE NANTES,17W000000493857D,44049,47.29227434,-2.522778444,Le Croisic,44,Loire-Atlantique,52,Pays de la Loire,2018-09-18 00:00,Eolien,3500,1
Confidentiel,17W000000493233E,26207,45.15347462,5.160027829,Montmiral,26,Dr??me,84,Auvergne-Rh??ne-Alpes,2018-09-18 00:00,Eolien,8800,4
Confidentiel,17W000000494215B,26207,45.15347462,5.160027829,Montmiral,26,Dr??me,84,Auvergne-Rh??ne-Alpes,2018-09-18 00:00,Eolien,8800,4
MONTIGNY LA COUR N??2,17W000000492237B,2409,49.58980153,3.964579673,Lappion,2,Aisne,32,Hauts-de-France,2018-09-14 00:00,Eolien,2200,1
FERME EOLIENNE GRANDE PIECE 2,17W000000492334D,28215,48.3262103,1.795194693,Louville-la-Chenard,28,Eure-et-Loir,24,Centre-Val de Loire,2018-08-30 00:00,Eolien,3300,1
PARC EOLIEN DE VOUILLON A,17W000000491533C,36248,46.81998264,1.913206686,Vouillon,36,Indre,24,Centre-Val de Loire,2018-08-30 00:00,Eolien,10350,3
PARC EOLIEN DE VOUILLON B,17W000000476349T,36248,46.81998264,1.913206686,Vouillon,36,Indre,24,Centre-Val de Loire,2018-08-29 00:00,Eolien,10350,
Confidentiel,17W000000499603E,27109,49.1042866,0.83603401,Bray,27,Eure,28,Normandie,2018-08-25 00:00,Eolien,12300,6
PARC EOLIEN DE FRESNOY-FOLNY,17W000000476909H,76286,49.88727333,1.434919025,Fresnoy-Folny,76,Seine-Maritime,28,Normandie,2018-08-14 00:00,Eolien,14100,6
PARC EOLIEN DE DOUX LE VENT,17W000000497627A,52178,48.37118044,4.917063852,Doulevant-le-Ch??teau,52,Haute-Marne,44,Grand-Est,2018-08-11 00:00,Eolien,12800,4
BORALEX LES COTEAUX DU BLAISERON,17W0000004977446,52172,48.40117863,4.91405368,Dommartin-le-Saint-P??re,52,Haute-Marne,44,Grand-Est,2018-08-11 00:00,Eolien,12800,4
FE SAINT CLEMENT,17W0000004953209,80273,49.78433064,1.940468775,??plessier,80,Somme,32,Hauts-de-France,2018-08-10 00:00,Eolien,12000,4
SAINTE COLOMBE B,17W000000476295Q,89339,47.57333268,3.95597782,Sainte-Colombe,89,Yonne,27,Bourgogne-Franche-Comt??,2018-07-31 00:00,Eolien,6600,3
FP LUX WIND SARTHE SAS,17W000000476103O,72355,48.31236397,0.205432244,Thoir??-sous-Contensor,72,Sarthe,52,Pays de la Loire,2018-07-26 00:00,Eolien,10000,5
confidentiel,17W0000009190068,70468,47.82538328,5.819477319,Saint-Marcel,70,Haute-Sa??ne,27,Bourgogne-Franche-Comt??,2018-07-24 00:00,Eolien,4000,
PARC EOLIEN DE VILLERS VICOMTE,17W000000476669B,60692,49.6423565,2.228664937,Villers-Vicomte,60,Oise,32,Hauts-de-France,2018-07-24 00:00,Eolien,7050,3
PARC EOLIEN DU MONT MOYEN,17W000000476050J,60131,49.64941747,2.1054555,Catheux,60,Oise,32,Hauts-de-France,2018-07-24 00:00,Eolien,14100,6
PARC EOLIEN CAMOMILLE,17W0000004760745,80549,50.1005697,2.727665136,Miraumont,80,Somme,32,Hauts-de-France,2018-07-19 00:00,Eolien,4600,2
Confidentiel,17W000000476752O,2004,49.71665736,3.960432118,Agnicourt-et-S??chelles,2,Aisne,32,Hauts-de-France,2018-07-19 00:00,Eolien,12000,4
priv??,17W000000490062U,79174,46.23095837,-0.147888713,Melle,79,Deux-S??vres,75,Nouvelle-Aquitaine,2018-07-19 00:00,Eolien,14000,1
CENTRALE EOLIENNE DE GOULIEN,17W000000461300G,29063,48.05797298,-4.592604416,Goulien,29,Finist??re,53,Bretagne,2018-07-18 00:00,Eolien,6400,16
PARC EOLIEN DE NIBAS IV - 4.6MW,17W000000476363Z,80597,50.09448169,1.588622911,Nibas,80,Somme,32,Hauts-de-France,2018-07-17 00:00,Eolien,4600,2
PARC EOLIEN DU VALBIN (VALBIN 1),17W000000476838E,10055,48.14126288,4.362428285,Bourguignons,10,Aube,44,Grand-Est,2018-07-17 00:00,Eolien,9600,4
EOLIENNES DE SAINT AUBIN,17W000000477031I,11116,43.25780133,3.005475499,Cuxac-d'Aude,11,Aude,76,Occitanie,2018-06-27 00:00,Eolien,11500,5
COESMES 1,17W000000476495I,35082,47.87252333,-1.416404494,Co??smes,35,Ille-et-Vilaine,53,Bretagne,2018-06-27 00:00,Eolien,12000,4
L'ENSINET 2,17W000000476807P,2618,50.01430675,3.39725258,Pr??mont,2,Aisne,32,Hauts-de-France,2018-06-25 00:00,Eolien,13800,4
CENTRALE EOLIENNE DE DEMANGE T1,17W0000004762365,55150,48.59152437,5.472661499,Demange-aux-Eaux,55,Meuse,44,Grand-Est,2018-06-22 00:00,Eolien,8800,4
CENTRALE EOLIENNE DE DEMANGE T2,17W000000476463V,55150,48.59152437,5.472661499,Demange-aux-Eaux,55,Meuse,44,Grand-Est,2018-06-22 00:00,Eolien,11000,5
PARC EOLIEN DE FLAVIN,17W000000477017C,12102,44.28801378,2.621755514,Flavin,12,Aveyron,76,Occitanie,2018-06-20 00:00,Eolien,11000,5
CENTRALE EOLIENNE DE CHASSEPAIN 2,17W0000004770295,36184,46.67588169,1.982330642,Saint-Chartier,36,Indre,24,Centre-Val de Loire,2018-06-15 00:00,Eolien,10000,5
CENTRALE EOLIENNE DE CHASSEPAIN 1,17W0000004763094,36184,46.67588169,1.982330642,Saint-Chartier,36,Indre,24,Centre-Val de Loire,2018-06-15 00:00,Eolien,10000,5
PARC EOLIEN AUTREMENCOURT CUIRIEUX 2,17W000000500672D,2039,49.70512444,3.794198673,Autremencourt,2,Aisne,32,Hauts-de-France,2018-06-12 00:00,Eolien,7200,3
PARC EOLIEN D AUTRENCOURT CUIRIEUX 1,17W0000005006919,2039,49.70512444,3.794198673,Autremencourt,2,Aisne,32,Hauts-de-France,2018-06-12 00:00,Eolien,9000,3
EOLIENNES DU PAISILIER,17W000000497792W,85209,46.51388503,-1.011576604,Saint-??tienne-de-Brillouet,85,Vend??e,52,Pays de la Loire,2018-06-11 00:00,Eolien,8000,10
CEPE DE BRICQUEVILLE,17W000000496063Z,14107,49.2893189,-0.956918428,Bricqueville,14,Calvados,28,Normandie,2018-06-11 00:00,Eolien,8800,4
FERME EOLIENNE DU MERISIER,17W000000476287P,44205,47.4523564,-1.427568832,Les Touches,44,Loire-Atlantique,52,Pays de la Loire,2018-06-08 00:00,Eolien,9400,4
Confidentiel,17W000000476861J,80493,50.09202472,2.505251231,Louvencourt,80,Somme,32,Hauts-de-France,2018-06-06 00:00,Eolien,9200,4
PARC EOLIEN DE LA COTE BELVAT 1,17W000000476113L,51340,48.73666328,4.467001608,Maisons-en-Champagne,51,Marne,44,Grand-Est,2018-06-06 00:00,Eolien,9900,3
PARC EOLIEN DE LA COTE BELVAT 2,17W000000476207C,51340,48.73666328,4.467001608,Maisons-en-Champagne,51,Marne,44,Grand-Est,2018-06-06 00:00,Eolien,10000,5
Confidentiel,17W000000477051C,35082,47.87252333,-1.416404494,Co??smes,35,Ille-et-Vilaine,53,Bretagne,2018-05-29 00:00,Eolien,6000,2
PARC EOL FLESQUIERES,17W000000461190Y,59236,50.12383258,3.119387808,Flesqui??res,59,Nord,32,Hauts-de-France,2018-05-17 00:00,Eolien,9900,3
PARC EOLIEN FLESQUIERES 2,17W000000461827D,59236,50.12383258,3.119387808,Flesqui??res,59,Nord,32,Hauts-de-France,2018-05-17 00:00,Eolien,9900,3
SEPE LA CROIX SAINT MARC,17W0000004621229,57529,49.43772215,6.007012652,Ottange,57,Moselle,44,Grand-Est,2018-05-14 00:00,Eolien,16000,8
JUSTIEA2 - ADP A2 DE LA FERME EOLIENNE DE JUSTICE (LA) (PARC EOLIEN DES EPINETTES),17W000000495853B,28004,48.33163423,1.652004132,Allonnes,28,Eure-et-Loir,24,Centre-Val de Loire,2018-05-12 00:00,Eolien,4400,2
PARC EOLIEN DE CHILLY FRANSART 2,17W000000498882Q,80191,49.79647286,2.769833458,Chilly,80,Somme,32,Hauts-de-France,2018-05-12 00:00,Eolien,10000,4
PARC EOLIEN DE CHILLY FRANSART 1,17W000000500787X,80191,49.79647286,2.769833458,Chilly,80,Somme,32,Hauts-de-France,2018-05-12 00:00,Eolien,10000,4
MONTIGNY LA COUR N??1,17W0000004946113,2553,49.57436185,4.030648182,Nizy-le-Comte,2,Aisne,32,Hauts-de-France,2018-05-10 00:00,Eolien,12000,6
PARC EOLIEN CAMBREUSE,17W000000476681L,80493,50.09202472,2.505251231,Louvencourt,80,Somme,32,Hauts-de-France,2018-05-07 00:00,Eolien,11500,5
PARC EOLIEN DE L'ENSINET 1,17W000000476031N,2618,50.01430675,3.39725258,Pr??mont,2,Aisne,32,Hauts-de-France,2018-05-06 00:00,Eolien,10350,3
PARC EOLIEN DE L'ENSINET 3,17W000000476782F,2618,50.01430675,3.39725258,Pr??mont,2,Aisne,32,Hauts-de-France,2018-05-06 00:00,Eolien,13800,4
PARC EOLIEN DES COURTIBEAUX,17W000000484393U,86234,46.21238899,0.556851384,Saint-Martin-l'Ars,86,Vienne,75,Nouvelle-Aquitaine,2018-05-04 00:00,Eolien,10250,5
COURTIBEAUX,17W000000495796Y,86234,46.21238899,0.556851384,Saint-Martin-l'Ars,86,Vienne,75,Nouvelle-Aquitaine,2018-05-04 00:00,Eolien,10250,5
BOIS DE MONTRIGAUD C,17W0000004612424,26210,45.22643024,5.142896309,Montrigaud,26,Dr??me,84,Auvergne-Rh??ne-Alpes,2018-05-03 00:00,Eolien,10000,2
PARC EOLIEN LA MARETTE,17W000000461359K,80153,50.104145,2.540685517,Bus-l??s-Artois,80,Somme,32,Hauts-de-France,2018-04-27 00:00,Eolien,11600,5
ESPIERS E2 E4 E5,17W000000461372S,28164,48.25845986,1.814478584,Fresnay-l'??v??que,28,Eure-et-Loir,24,Centre-Val de Loire,2018-04-25 00:00,Eolien,10800,3
ESPIERS E1 E3,17W0000004614109,28164,48.25845986,1.814478584,Fresnay-l'??v??que,28,Eure-et-Loir,24,Centre-Val de Loire,2018-04-20 00:00,Eolien,7200,2
ESSEY 2,17W000000499887B,52114,48.02915356,4.932390643,Ch??teauvillain,52,Haute-Marne,44,Grand-Est,2018-04-12 00:00,Eolien,6000,3
ESSEY 1,17W000000499935Q,52114,48.02915356,4.932390643,Ch??teauvillain,52,Haute-Marne,44,Grand-Est,2018-04-12 00:00,Eolien,8000,4
PARC EOLIEN NOYERS BUCAMPS,17W000000494813S,60470,49.54809801,2.266373609,Noyers-Saint-Martin,60,Oise,32,Hauts-de-France,2018-04-10 00:00,Eolien,10000,4
CENTRALE EOLIENNE DE NACHAMPS-COURANT,17W000000461320A,17254,46.02203401,-0.624302957,Nachamps,17,Charente-Maritime,75,Nouvelle-Aquitaine,2018-03-29 00:00,Eolien,9000,3
PARC EOLIEN DE BARLY,17W000000461363T,80055,50.20570875,2.274244255,Barly,80,Somme,32,Hauts-de-France,2018-03-29 00:00,Eolien,10000,5
CENTRALE EOLIENNE DE NACHAMPS-COURANT,17W000000461189J,17254,46.02203401,-0.624302957,Nachamps,17,Charente-Maritime,75,Nouvelle-Aquitaine,2018-03-29 00:00,Eolien,12000,4
CENTRALE EOLIENNE DU FENOUILLEDES,17W000000461388D,66169,42.7767967,2.535651162,Saint-Arnac,66,Pyr??n??es-Orientales,76,Occitanie,2018-03-28 00:00,Eolien,11750,40
CENTRALE EOLIENNE DU PAYS CHAUMONTAIS,17W000000461357O,52251,48.15161028,5.074464821,Jonchery,52,Haute-Marne,44,Grand-Est,2018-03-21 00:00,Eolien,12000,6
BOIS DE MONTRIGAUD B,17W000000461299C,26210,45.22643024,5.142896309,Montrigaud,26,Dr??me,84,Auvergne-Rh??ne-Alpes,2018-03-14 00:00,Eolien,10000,5
EOLIENNES ARQUES 3,17W000000498908Y,12010,44.32208489,2.804046312,Arques,12,Aveyron,76,Occitanie,2018-03-12 00:00,Eolien,6000,24
PARC EOLIEN DE CLAIS 7 050 KW,17W000000494213F,76175,49.81391948,1.473638457,Clais,76,Seine-Maritime,28,Normandie,2018-02-26 00:00,Eolien,7050,1
PARC EOLIEN DE CLAIS,17W000000461176S,76175,49.81391948,1.473638457,Clais,76,Seine-Maritime,28,Normandie,2018-02-26 00:00,Eolien,7050,3
FERME EOLIENNE DE LA HAUTE EPINE SAS,17W000000461182X,2281,48.8992804,3.443841381,L'??pine-aux-Bois,2,Aisne,32,Hauts-de-France,2018-02-23 00:00,Eolien,10000,5
BOIS DE MONTRIGAUD A,17W000000461198I,26210,45.22643024,5.142896309,Montrigaud,26,Dr??me,84,Auvergne-Rh??ne-Alpes,2018-02-19 00:00,Eolien,10000,4
PARCE EOLIEN DE L'OASIS,17W000000461374O,53190,48.37825642,-0.415575081,Le Ribay,53,Mayenne,52,Pays de la Loire,2018-02-19 00:00,Eolien,10250,5
FERME EOLIENNE DE LA HAUTE EPINE,17W000000461267P,2281,48.8992804,3.443841381,L'??pine-aux-Bois,2,Aisne,32,Hauts-de-France,2018-02-15 00:00,Eolien,8000,4
PROD HTA-FERME EOL DE LA HAUTE EPINE-10 MW,17W0000004613048,51380,48.88028691,3.560485563,Montmirail,51,Marne,44,Grand-Est,2018-02-15 00:00,Eolien,12500,
EOLIENNES DE CLANLIEU 2,17W000000476950K,2629,49.84724443,3.663676637,Puisieux-et-Clanlieu,2,Aisne,32,Hauts-de-France,2018-02-08 00:00,Eolien,6600,3
EOLIENNES DE CLANLIEU 1,17W000000476805T,2629,49.84724443,3.663676637,Puisieux-et-Clanlieu,2,Aisne,32,Hauts-de-France,2018-02-08 00:00,Eolien,6600,3
priv??,17W000000488117Y,79174,46.23095837,-0.147888713,Melle,79,Deux-S??vres,75,Nouvelle-Aquitaine,2018-02-08 00:00,Eolien,9400,1
EOLIENNES DU CHAMP CHARDON,17W0000009200248,60351,49.53672016,2.67457954,Lataule,60,Oise,32,Hauts-de-France,2018-02-07 00:00,Eolien,10250,5
CENTERNACH ENERGIE,17W000000146341A,66169,42.7767967,2.535651162,Saint-Arnac,66,Pyr??n??es-Orientales,76,Occitanie,2018-02-05 00:00,Eolien,2350,9
FUTURES ENERGIES LANDES DE LAVERNAT,17W000000461311B,72160,47.71859572,0.346298772,Lavernat,72,Sarthe,52,Pays de la Loire,2018-02-05 00:00,Eolien,8000,4
ENERGIE PLOUYE,17W000000461396E,29211,48.32075461,-3.733952058,Plouy??,29,Finist??re,53,Bretagne,2018-01-19 00:00,Eolien,9200,4
LES CHAMPS D'AMOUR,17W000000461369H,36170,47.10820254,1.812079859,Reboursin,36,Indre,24,Centre-Val de Loire,2018-01-15 00:00,Eolien,8800,4
PARC EOLIEN ORVILLIERS II BIS,17W000000504278Y,10274,48.43876953,3.822491313,Orvilliers-Saint-Julien,10,Aube,44,Grand-Est,2018-01-12 00:00,Eolien,11650,5
TRAN5E02 - ADP 02 DE LA FERME EOLIENNE DE TRANSLOY (LE) (PARC DES HAUTS DE COMBLES),17W000000493213K,62829,50.05025146,2.89232344,Le Transloy,62,Pas-de-Calais,32,Hauts-de-France,2018-01-11 00:00,Eolien,20700,6
TAIL5E03 - ADP 03 DE LA FERME EOLIENNE DES TAILLADES (Parc Eolien de la Montagne Ard??choise Sud 3),17W000000490732B,7136,44.62072588,3.919338192,Laveyrune,7,Ard??che,84,Auvergne-Rh??ne-Alpes,2018-01-09 00:00,Eolien,7040,3
TRAN5E01 - ADP 01 DE LA FERME EOLIENNE DE TRANSLOY (LE) (PARC INTER-DEUX-BOS),17W000000493214I,62829,50.05025146,2.89232344,Le Transloy,62,Pas-de-Calais,32,Hauts-de-France,2018-01-09 00:00,Eolien,34500,10
PARC EOLIEN GUERHARO,17W000000477100P,22037,48.46560696,-3.440677615,La Chapelle-Neuve,22,C??tes-d'Armor,53,Bretagne,2018-01-08 00:00,Eolien,4800,6
SAINTE COLOMBE A,17W0000004769568,89339,47.57333268,3.95597782,Sainte-Colombe,89,Yonne,27,Bourgogne-Franche-Comt??,2018-01-08 00:00,Eolien,8800,4
EOLIENNES DES TROIS PLAINES,17W000000477067Y,76200,49.61486458,1.244447871,Critot,76,Seine-Maritime,28,Normandie,2018-01-08 00:00,Eolien,10000,5
FERME EOLIENNE DE MALAUCOURT,17W000000476502A,57436,48.84329098,6.358901781,Malaucourt-sur-Seille,57,Moselle,44,Grand-Est,2018-01-08 00:00,Eolien,12000,5
S.E.P.E  L'ALEMONT,17W000000434104J,80100,50.01753135,2.122255364,Bettencourt-Saint-Ouen,80,Somme,32,Hauts-de-France,2017-12-21 00:00,Eolien,2000,1
PARC EOLIEN LE GRAND CHAMP,17W000000439940W,80711,50.03429867,2.131159574,Saint-Ouen,80,Somme,32,Hauts-de-France,2017-12-21 00:00,Eolien,8000,4
CABALAS CENTRE (CAB A),17W000000435607P,34121,43.76621939,3.183100968,Joncels,34,H??rault,76,Occitanie,2017-12-19 00:00,Eolien,11500,45
RQREDE02 - ADP 02 DE LA FERME EOLIENNE DE ROQUEREDONDE,17W000000492297U,34233,43.79629623,3.207973775,Roqueredonde,34,H??rault,76,Occitanie,2017-12-19 00:00,Eolien,18400,8
RQREDE01 - ADP 01 DE LA FERME EOLIENNE DE ROQUEREDONDE,17W0000004922931,34233,43.79629623,3.207973775,Roqueredonde,34,H??rault,76,Occitanie,2017-12-19 00:00,Eolien,18400,8
SPEBH EOLIEN HOUDELAINCOURT,17W000000439993B,55248,48.55169991,5.456665192,Houdelaincourt,55,Meuse,44,Grand-Est,2017-12-18 00:00,Eolien,6600,2
PARC EOLIEN SOURCE DE LA SENSEE,17W0000004399779,62406,50.18339961,2.802263636,Hamelincourt,62,Pas-de-Calais,32,Hauts-de-France,2017-12-15 00:00,Eolien,6150,3
PARC EOLIEN DE LA GARENNE,17W000000434214C,60178,49.61253888,2.084890208,Cr??vec??ur-le-Grand,60,Oise,32,Hauts-de-France,2017-12-14 00:00,Eolien,4000,2
SPEBH EOL BONNET,17W000000439991F,55059,48.5253805,5.425923341,Bonnet,55,Meuse,44,Grand-Est,2017-12-13 00:00,Eolien,6600,2
PARC EOLIEN D'OURSEL MAISON II,17W000000460740U,60485,49.60220061,2.177758332,Oursel-Maison,60,Oise,32,Hauts-de-France,2017-12-13 00:00,Eolien,7000,3
PARC EOLIEN D'OURSEL MAISON I,17W000000460694B,60485,49.60220061,2.177758332,Oursel-Maison,60,Oise,32,Hauts-de-France,2017-12-13 00:00,Eolien,9350,4
ENERTRAG LACAUNE SCS PUECH D'EMBUEL,17W000000460650V,81124,43.69727531,2.688332859,Lacaune,81,Tarn,76,Occitanie,2017-12-13 00:00,Eolien,13036,6
VENT DE THIERACHE 03,17W000000434629K,8100,49.83500556,4.326362909,Champlin,8,Ardennes,44,Grand-Est,2017-12-10 00:00,Eolien,2400,1
CEPE DE LA BAUME,17W0000004398993,12122,44.00626861,3.09638243,Lapanouse-de-Cernon,12,Aveyron,76,Occitanie,2017-12-10 00:00,Eolien,13200,6
FERME EOLIENNE DE LICHERES,17W0000003869933,89224,47.71591309,3.842549695,Lich??res-pr??s-Aigremont,89,Yonne,27,Bourgogne-Franche-Comt??,2017-12-09 00:00,Eolien,12000,6
CENTRALE EOLIENNE DE DAINVILLE 1,17W0000003891072,55142,48.45076697,5.508587093,Dainville-Berthel??ville,55,Meuse,44,Grand-Est,2017-12-09 00:00,Eolien,12300,6
PARC EOLIEN DE DAINVILLE 2,17W000000384605B,55142,48.45076697,5.508587093,Dainville-Berthel??ville,55,Meuse,44,Grand-Est,2017-12-09 00:00,Eolien,12300,6
CENTRALE EOLIENNE DE L'OSIERE,17W000000390332Y,2622,49.13061975,3.262807176,Priez,2,Aisne,32,Hauts-de-France,2017-12-07 00:00,Eolien,14000,7
PARC EOLIEN GRAZAS,17W000000440022Z,11421,43.21139999,2.855100924,Villedaigne,11,Aude,76,Occitanie,2017-11-28 00:00,Eolien,6900,3
La Boule Bleue,17W0000009313577,80677,49.94504956,3.096143748,Roisel,80,Somme,32,Hauts-de-France,2017-11-28 00:00,Eolien,14100,
EOLIENNES ARQUES 1,17W000000461202G,12010,44.32208489,2.804046312,Arques,12,Aveyron,76,Occitanie,2017-11-27 00:00,Eolien,8000,4
EOLIENNES ARQUES 2 (SDO1604),17W000000461367L,12010,44.32208489,2.804046312,Arques,12,Aveyron,76,Occitanie,2017-11-27 00:00,Eolien,8000,2
FERME EOLIENNE DE ST JULIEN DU TERROUX,17W000000434202J,53230,48.48354288,-0.409443393,Saint-Julien-du-Terroux,53,Mayenne,52,Pays de la Loire,2017-11-27 00:00,Eolien,10250,5
PARC EOLIEN GUICHERIC,17W000000460683G,11421,43.21139999,2.855100924,Villedaigne,11,Aude,76,Occitanie,2017-11-22 00:00,Eolien,11500,5
PARC EOLIEN DE MONT EN GRAINS,17W000000460585G,80241,50.07575573,2.123188951,Domart-en-Ponthieu,80,Somme,32,Hauts-de-France,2017-11-22 00:00,Eolien,12000,6
priv??,17W000000488515M,79157,47.01761274,-0.180557135,Louzy,79,Deux-S??vres,75,Nouvelle-Aquitaine,2017-11-20 00:00,Eolien,7050,1
FERME EOLIENNE DU FOND SAINT CLEMENT I,17W000000460466O,80179,49.78677669,1.899084799,Cauli??res,80,Somme,32,Hauts-de-France,2017-11-14 00:00,Eolien,11750,5
FERME EOLIENNE DU FOND ST CLEMENT II,17W0000004341536,80179,49.78677669,1.899084799,Cauli??res,80,Somme,32,Hauts-de-France,2017-11-14 00:00,Eolien,11750,5
PARC EOLIEN DE LONGEVES,17W0000004606959,17208,46.2376082,-0.974659437,Long??ves,17,Charente-Maritime,75,Nouvelle-Aquitaine,2017-11-13 00:00,Eolien,9000,3
PARC EOLIEN LUDMILA 3,17W000000383517D,58213,47.39401569,3.023974048,Pougny,58,Ni??vre,27,Bourgogne-Franche-Comt??,2017-11-08 00:00,Eolien,4700,2
PARC EOLIEN EL SINGLA,17W000000048079V,66152,42.82688968,2.436472451,Prugnanes,66,Pyr??n??es-Orientales,76,Occitanie,2017-11-07 00:00,Eolien,9400,4
PARC EOLIEN EL SINGLA 2,17W000000064223L,66187,42.82067485,2.507238703,Saint-Paul-de-Fenouillet,66,Pyr??n??es-Orientales,76,Occitanie,2017-11-07 00:00,Eolien,11750,5
PARC EOLIEN CHAMPAGNE BERRICHONNE,17W0000003892052,36248,46.81998264,1.913206686,Vouillon,36,Indre,24,Centre-Val de Loire,2017-11-04 00:00,Eolien,10000,5
PARC EOLIEN ABLAINZEVELLE 2,17W0000004400121,62002,50.15365955,2.741473611,Ablainzevelle,62,Pas-de-Calais,32,Hauts-de-France,2017-10-30 00:00,Eolien,2000,1
CARREAU MANCEAU N??5,17W000000439936N,2264,49.63555757,4.013128802,Dizy-le-Gros,2,Aisne,32,Hauts-de-France,2017-10-27 00:00,Eolien,11750,5
MSE LE HAUT DES EPINETTES,17W000000460570T,2439,49.36033559,3.655678444,Les Septvallons,2,Aisne,32,Hauts-de-France,2017-10-27 00:00,Eolien,12000,6
PARC EOLIEN DES TOURNEVENTS DU COS 1,17W000000434200N,2726,49.72741807,3.119478085,Sommette-Eaucourt,2,Aisne,32,Hauts-de-France,2017-10-26 00:00,Eolien,9600,5
ENERGIES DU PLATEAU CENTRAL 2,17W000000439938J,25247,47.44824721,6.411035074,Fontenelle-Montby,25,Doubs,27,Bourgogne-Franche-Comt??,2017-10-20 00:00,Eolien,11120,4
AUNIS ENERGIES,17W0000004606041,17349,46.27975859,-0.88237466,Saint-Jean-de-Liversay,17,Charente-Maritime,75,Nouvelle-Aquitaine,2017-10-20 00:00,Eolien,13500,9
FERME EOLIENNE DE CHAUCHE,17W000000460644Q,85064,46.82827919,-1.270908607,Chauch??,85,Vend??e,52,Pays de la Loire,2017-10-19 00:00,Eolien,11750,5
CEPE DES MONTS DE L'AIN - TRANCHE SUD,17W000000429928S,1191,46.03816234,5.524479012,Izenave,1,Ain,84,Auvergne-Rh??ne-Alpes,2017-10-18 00:00,Eolien,10000,5
SOC EXPLOITATION PARC EOLIEN SABINE 2,17W000000460539N,39094,46.84430558,5.738747672,Chamole,39,Jura,27,Bourgogne-Franche-Comt??,2017-10-16 00:00,Eolien,3000,1
SOC EXPLOITATION PARC EOLIEN SABINE,17W000000460649G,39094,46.84430558,5.738747672,Chamole,39,Jura,27,Bourgogne-Franche-Comt??,2017-10-16 00:00,Eolien,15000,5
CENTRALE EOLIENNE DE COUME,17W000000461337U,57154,49.19687299,6.583118751,Coume,57,Moselle,44,Grand-Est,2017-10-13 00:00,Eolien,7500,3
PARC EOLIEN DES TOURNEVENTS DU COS 2,17W0000004606203,2246,49.70310091,3.154244989,Cugny,2,Aisne,32,Hauts-de-France,2017-10-11 00:00,Eolien,12000,4
priv??,17W000000488778R,79204,46.18576744,-0.245561861,P??rign??,79,Deux-S??vres,75,Nouvelle-Aquitaine,2017-10-08 00:00,Eolien,8000,1
PARC EOLIEN BOIS DE BELFAYS PDL NORD,17W000000387293Q,67421,48.35166583,7.110351004,Saales,67,Bas-Rhin,44,Grand-Est,2017-10-07 00:00,Eolien,4000,2
PARC EOLIEN DU BOIS DE BELFAYS PDL SUD,17W000000424880I,88215,48.36695198,7.062067607,Grandrupt,88,Vosges,44,Grand-Est,2017-10-07 00:00,Eolien,16000,8
ENERTRAG AISNE V DE MEZIERES SISSY,17W0000000477026,2721,49.81065552,3.420846476,Sissy,2,Aisne,32,Hauts-de-France,2017-10-05 00:00,Eolien,10000,4
COUFFE05 - ADP 05 DE LA FERME EOLIENNE DE COUFFRAU (PUECH DEL VERT),17W000000013431C,81023,43.74326219,2.815993084,Barre,81,Tarn,76,Occitanie,2017-10-05 00:00,Eolien,11500,5
COUFFE06 - ADP 06 DE LA FERME EOLIENNE DE COUFFRAU (BOIS DE MERDELOU),17W0000000134265,81023,43.74326219,2.815993084,Barre,81,Tarn,76,Occitanie,2017-10-05 00:00,Eolien,16100,7
FERME EOLIENNE D'AVESSAC,17W0000004321764,44007,47.6354363,-1.970508715,Avessac,44,Loire-Atlantique,52,Pays de la Loire,2017-10-03 00:00,Eolien,10190,5
LES BRANDES,17W000000484027I,86248,46.3255333,0.490583315,Saint-Secondin,86,Vienne,75,Nouvelle-Aquitaine,2017-10-01 00:00,Eolien,15000,5
PARC EOLIEN ROCHER BRETON,17W000000430245L,56108,47.71581364,-2.494562213,Larr??,56,Morbihan,53,Bretagne,2017-09-29 00:00,Eolien,9200,4
CEPE DU BOIS DE BAJOUVE,17W000000434178R,63189,45.65093834,2.746019414,Laqueuille,63,Puy-de-D??me,84,Auvergne-Rh??ne-Alpes,2017-09-28 00:00,Eolien,12000,6
ENERGIE TIGNE,17W0000004264027,49373,47.13733015,-0.559450064,Lys-Haut-Layon,49,Maine-et-Loire,52,Pays de la Loire,2017-09-27 00:00,Eolien,8000,4
AERODIS  HERBITZHEIM,17W000000460668C,67191,49.02213592,7.081789677,Herbitzheim,67,Bas-Rhin,44,Grand-Est,2017-09-27 00:00,Eolien,10000,5
PARC EOLIEN DE HAUTE PICARDIE,17W000000412774X,80646,49.79193711,2.807840103,Punchy,80,Somme,32,Hauts-de-France,2017-09-25 00:00,Eolien,4000,2
SEPE DU VAL D'AY,17W0000003806695,7285,45.12870026,4.485326475,Saint-Pierre-sur-Doux,7,Ard??che,84,Auvergne-Rh??ne-Alpes,2017-09-25 00:00,Eolien,11500,5
CEPE DES MONTS DE L'AIN - TRANCHE NORD,17W000000090872N,1441,46.08533867,5.549221002,Vieu-d'Izenave,1,Ain,84,Auvergne-Rh??ne-Alpes,2017-09-20 00:00,Eolien,8000,4
LUSSAC TRANCHE 1,17W0000000496938,87087,46.34175282,1.175915925,Lussac-les-??glises,87,Haute-Vienne,75,Nouvelle-Aquitaine,2017-09-20 00:00,Eolien,9000,3
PARC EOLIEN DE PLANEZE,17W000000065356Y,7240,44.8592532,4.80969715,Saint-Georges-les-Bains,7,Ard??che,84,Auvergne-Rh??ne-Alpes,2017-09-19 00:00,Eolien,11500,5
ENERGIES DU PLATEAU CENTRAL 2,17W000000390978N,25377,47.42982097,6.37991516,M??sandans,25,Doubs,27,Bourgogne-Franche-Comt??,2017-09-14 00:00,Eolien,11120,4
EOLIENNES DE BUIRE LE SEC 2,17W000000416650V,62183,50.39322273,1.823119827,Buire-le-Sec,62,Pas-de-Calais,32,Hauts-de-France,2017-09-13 00:00,Eolien,12000,4
EOLIENNES DE BUIRE LE SEC 3,17W0000004298421,62183,50.39322273,1.823119827,Buire-le-Sec,62,Pas-de-Calais,32,Hauts-de-France,2017-09-13 00:00,Eolien,12000,4
EOLIENNES DE BUIRE LE SEC 1,17W000000387448N,62183,50.39322273,1.823119827,Buire-le-Sec,62,Pas-de-Calais,32,Hauts-de-France,2017-09-13 00:00,Eolien,12000,4
PARC EOLIEN DE MANCHEVILLE,17W0000004605898,76266,50.03486877,1.364822817,Flocques,76,Seine-Maritime,28,Normandie,2017-09-11 00:00,Eolien,4000,2
ENERGIE DU TOUVENT,17W000000460449O,53114,48.34114678,-0.40571415,Hardanges,53,Mayenne,52,Pays de la Loire,2017-09-11 00:00,Eolien,7050,3
PARC EOLIEN DE L'ARTOIS 2,17W000000434401D,62185,50.19274004,2.928761436,Bullecourt,62,Pas-de-Calais,32,Hauts-de-France,2017-09-11 00:00,Eolien,10350,3
Ferme Eolienne de la Sabli??re Dave 2,17W000000931351J,80236,49.71418572,2.596539965,Davenescourt,80,Somme,32,Hauts-de-France,2017-09-11 00:00,Eolien,12800,
PARC EOLIEN DE L'ARTOIS 1,17W000000457306H,62185,50.19274004,2.928761436,Bullecourt,62,Pas-de-Calais,32,Hauts-de-France,2017-09-11 00:00,Eolien,13200,4
PARC EOLIEN DE LA CROIX NOIRE,17W000000414415E,62385,50.25431076,2.474475398,Grand-Rullecourt,62,Pas-de-Calais,32,Hauts-de-France,2017-09-03 00:00,Eolien,12000,6
TAIL5E01 - ADP 01 DE LA FERME EOLIENNE DES TAILLADES (Parc Eolien de la Montagne Ard??choise Sud 1),17W000000013627W,7136,44.62072588,3.919338192,Laveyrune,7,Ard??che,84,Auvergne-Rh??ne-Alpes,2017-09-02 00:00,Eolien,14100,6
TAIL5E05 - ADP 05 DE LA FERME EOLIENNE DES TAILLADES (Parc Eolien de la Montagne Ard??choise Est),17W000000013626Y,7136,44.62072588,3.919338192,Laveyrune,7,Ard??che,84,Auvergne-Rh??ne-Alpes,2017-09-02 00:00,Eolien,18800,8
TAIL5E04 - ADP 04 DE LA FERME EOLIENNE DES TAILLADES (Parc Eolien de la Montagne Ard??choise Nord),17W000000013628U,7136,44.62072588,3.919338192,Laveyrune,7,Ard??che,84,Auvergne-Rh??ne-Alpes,2017-09-02 00:00,Eolien,24160,8
PARC EOLIEN DE TOURNY,17W0000000589359,27213,49.1515466,1.597731129,Vexin-sur-Epte,27,Eure,28,Normandie,2017-08-30 00:00,Eolien,13800,54
ENERTRAG BOURGOGNE II,17W000000388021H,89149,47.89217048,3.8628422,Dy??,89,Yonne,27,Bourgogne-Franche-Comt??,2017-08-25 00:00,Eolien,14000,7
PARC EOLIEN DE LA PLAINE DE BEAUNAY,17W000000427786W,76632,49.73844231,0.974051314,Saint-Pierre-B??nouville,76,Seine-Maritime,28,Normandie,2017-08-22 00:00,Eolien,12500,5
CEOLFON16,17W0000000660831,16141,45.9129011,0.174854978,Fontenille,16,Charente,75,Nouvelle-Aquitaine,2017-08-18 00:00,Eolien,10000,5
PARC EOLIEN DES ROSSIGNOLS,17W000000434409Y,62824,50.33549186,1.914833339,Tortefontaine,62,Pas-de-Calais,32,Hauts-de-France,2017-08-12 00:00,Eolien,6000,3
CENTRALE EOLIENNE DE LA CARNOYE 2,17W0000004399965,62327,50.53339898,2.303042748,Febvin-Palfart,62,Pas-de-Calais,32,Hauts-de-France,2017-08-12 00:00,Eolien,9900,3
CENTRALE EOLIENNE DE LA CARNOYE 1,17W000000434213E,62327,50.53339898,2.303042748,Febvin-Palfart,62,Pas-de-Calais,32,Hauts-de-France,2017-08-12 00:00,Eolien,9900,3
FERME EOLIENNE DE SPDM3,17W000000385756M,86236,46.6777213,0.825185186,Saint-Pierre-de-Maill??,86,Vienne,75,Nouvelle-Aquitaine,2017-08-09 00:00,Eolien,12000,4
FERME EOLIENNE DE SPDM3,17W000000082203P,86236,46.6777213,0.825185186,Saint-Pierre-de-Maill??,86,Vienne,75,Nouvelle-Aquitaine,2017-08-09 00:00,Eolien,12000,4
TIERCELINE ENERGIES SARL,17W0000004305459,17383,45.94597524,-0.384995956,Saint-Pierre-de-Juillers,17,Charente-Maritime,75,Nouvelle-Aquitaine,2017-08-08 00:00,Eolien,10250,5
CE VARADES,17W0000004259817,44213,47.40231333,-1.024327441,Loireauxence,44,Loire-Atlantique,52,Pays de la Loire,2017-08-06 00:00,Eolien,4800,6
Santerre Energies Le Plessier 1,17W000000931829T,80545,49.78079954,2.551495319,M??zi??res-en-Santerre,80,Somme,32,Hauts-de-France,2017-08-06 00:00,Eolien,10000,
PARC EOLIEN DE BOISSY ENERGIE 2,17W0000003796774,91079,48.38241466,2.170050867,Boissy-la-Rivi??re,91,Essonne,11,Ile-de-France,2017-07-26 00:00,Eolien,7500,3
PARC EOLIEN TERRES NOIRES II,17W000000382489Y,2287,49.77407801,3.272144593,Essigny-le-Grand,2,Aisne,32,Hauts-de-France,2017-07-26 00:00,Eolien,9510,3
EOLE DE PLAN FLEURY,17W0000003835369,10289,48.58515753,3.985288538,Plancy-l'Abbaye,10,Aube,44,Grand-Est,2017-07-25 00:00,Eolien,10000,5
EOLE DE PLAN FLEURY 2,17W0000003888903,10408,48.58223192,4.053870937,Vi??pres-le-Petit,10,Aube,44,Grand-Est,2017-07-25 00:00,Eolien,12000,6
PARC EOLIEN DES TERRES NOIRES 1,17W0000001635229,2756,49.78975079,3.316299669,Urvillers,2,Aisne,32,Hauts-de-France,2017-07-21 00:00,Eolien,9510,3
FERME EOLIENNE LA GRANDE PIECE,17W0000003874119,28215,48.3262103,1.795194693,Louville-la-Chenard,28,Eure-et-Loir,24,Centre-Val de Loire,2017-07-19 00:00,Eolien,16500,5
PARC EOLIEN VAL AUX MOINES 2,17W0000000638224,76262,49.79046643,1.488410811,Fesques,76,Seine-Maritime,28,Normandie,2017-07-18 00:00,Eolien,5000,2
PARC EOLIEN VAL AUX MOINES 1,17W000000082580W,76724,49.78780302,1.518414169,Vatierville,76,Seine-Maritime,28,Normandie,2017-07-18 00:00,Eolien,10000,4
PARC EOLIEN DE FOSSIEUX,17W0000004316167,57228,48.8502738,6.330842476,Fossieux,57,Moselle,44,Grand-Est,2017-07-17 00:00,Eolien,9600,4
EOLIEN BOURESSE,17W000000487532R,86034,46.35558044,0.581776252,Bouresse,86,Vienne,75,Nouvelle-Aquitaine,2017-07-13 00:00,Eolien,10000,5
Le Long Villiers,17W0000009201082,28183,48.34308325,1.952812718,Gommerville,28,Eure-et-Loir,24,Centre-Val de Loire,2017-07-12 00:00,Eolien,9400,4
Le Bois Violette,17W000000921076L,28284,48.23563208,1.924145497,Oinville-Saint-Liphard,28,Eure-et-Loir,24,Centre-Val de Loire,2017-07-12 00:00,Eolien,13800,6
priv??,17W0000004898414,79095,46.18625143,0.03205819,Clussais-la-Pommeraie,79,Deux-S??vres,75,Nouvelle-Aquitaine,2017-07-11 00:00,Eolien,10000,1
SAS LE BOIS JOLI,17W000000460648I,85096,46.89775413,-1.824430405,La Garnache,85,Vend??e,52,Pays de la Loire,2017-07-11 00:00,Eolien,12300,6
Eole Haute Somme 1,17W0000009314816,80601,50.00391746,3.015061346,Nurlu,80,Somme,32,Hauts-de-France,2017-07-10 00:00,Eolien,12000,
Eole Haute Somme 2,17W000000931610L,80601,50.00391746,3.015061346,Nurlu,80,Somme,32,Hauts-de-France,2017-07-10 00:00,Eolien,12000,
Santerre Energies Le Plessier 2,17W000000932044N,80628,49.75156078,2.552602608,Le Plessier-Rozainvillers,80,Somme,32,Hauts-de-France,2017-07-06 00:00,Eolien,10000,
PARC EOLIEN D'AULNOIS,17W000000397196I,57040,48.86193807,6.32824523,Aulnois-sur-Seille,57,Moselle,44,Grand-Est,2017-06-29 00:00,Eolien,9600,4
PARC EOLIEN SCAER CRENORIEN,17W0000003789913,29274,48.02799031,-3.730738358,Sca??r,29,Finist??re,53,Bretagne,2017-06-23 00:00,Eolien,10250,5
HAYETE01 - ADP 01 DE LA FERME EOLIENNE DE HAYETTE (LA),17W000000492295Y,2157,49.59863661,3.672008326,Chambry,2,Aisne,32,Hauts-de-France,2017-06-15 00:00,Eolien,68000,23
BRIASE02 - ADP 02 DE LA FERME EOLIENNE DE BRIASTRE,17W000000493212M,59108,50.15481594,3.486751009,Briastre,59,Nord,32,Hauts-de-France,2017-06-12 00:00,Eolien,16500,5
BRIASE01 - ADP 01 DE LA FERME EOLIENNE DE BRIASTRE,17W000000493215G,59108,50.15481594,3.486751009,Briastre,59,Nord,32,Hauts-de-France,2017-06-12 00:00,Eolien,29700,9
PARC EOLIEN DU LOUVENG,17W0000004606009,59363,50.21659031,3.640081911,Louvignies-Quesnoy,59,Nord,32,Hauts-de-France,2017-06-11 00:00,Eolien,11000,5
TAIL5E02 - ADP 02 DE LA FERME EOLIENNE DES TAILLADES (Parc Eolien de la Montagne Ard??choise Sud 2),17W000000031106L,7136,44.62072588,3.919338192,Laveyrune,7,Ard??che,84,Auvergne-Rh??ne-Alpes,2017-06-10 00:00,Eolien,9400,4
PARC EOLIEN NORDEX VI (MONT D'ERNY),17W000000382319M,62265,50.62231367,2.217519466,Delettes,62,Pas-de-Calais,32,Hauts-de-France,2017-06-04 00:00,Eolien,12500,5
EOLIENNES DE LA CHAUSSEE BRUNEHAUT N??5,17W000000040782H,60299,49.619043,2.224713923,Hardivillers,60,Oise,32,Hauts-de-France,2017-06-02 00:00,Eolien,6159,3
EOLIENNES DE LA CHAUSSEE BRUNEHAUT N??2,17W0000001570704,60518,49.58363394,2.190035431,Puits-la-Vall??e,60,Oise,32,Hauts-de-France,2017-06-02 00:00,Eolien,7069,3
EOLIEN LE NITIS 2,17W000000388445O,8014,49.43162853,4.413821336,Annelles,8,Ardennes,44,Grand-Est,2017-05-29 00:00,Eolien,11750,5
PROD HTA EOL SEPE CHAMPS DES VINGTS,17W000000389183N,62095,50.54378146,2.219086613,Beaumetz-l??s-Aire,62,Pas-de-Calais,32,Hauts-de-France,2017-05-24 00:00,Eolien,4600,2
FERME EOLIENNE LE BURET SAS,17W000000413351J,53046,47.91884283,-0.500867795,Le Buret,53,Mayenne,52,Pays de la Loire,2017-05-19 00:00,Eolien,8600,4
PARC EOLIEN DU HOUSSA,17W000000439959B,56224,47.79182184,-2.314307728,Saint-Laurent-sur-Oust,56,Morbihan,53,Bretagne,2017-05-12 00:00,Eolien,8000,4
CEPE DE VIEILLES CARRIERES,17W000000082170E,2306,49.74099735,3.551297707,La Fert??-Chevresis,2,Aisne,32,Hauts-de-France,2017-05-09 00:00,Eolien,12000,6
PARC EOLIEN DE BOUHY,17W000000419099A,58094,47.50710794,3.129791797,Dampierre-sous-Bouhy,58,Ni??vre,27,Bourgogne-Franche-Comt??,2017-05-04 00:00,Eolien,11500,5
MEILH AVEL SARL,17W000000062516G,29174,47.90841147,-4.26536048,Plon??our-Lanvern,29,Finist??re,53,Bretagne,2017-04-26 00:00,Eolien,2300,1
PARC EOLIEN DE BOQUEHO PLOUAGAT,17W000000054704B,22011,48.46790091,-2.985145679,Boqueho,22,C??tes-d'Armor,53,Bretagne,2017-04-20 00:00,Eolien,8400,4
EOLIEN BOIS DE GRISAN,17W000000439913Z,56200,47.81352996,-2.284777176,Ruffiac,56,Morbihan,53,Bretagne,2017-04-10 00:00,Eolien,8000,4
priv??,17W0000004840919,79256,46.45950304,-0.045578833,Saint-Germier,79,Deux-S??vres,75,Nouvelle-Aquitaine,2017-04-10 00:00,Eolien,10000,1
PARC EOLIEN DE LA VOIE DES MONTS,17W000000054798D,2287,49.77407801,3.272144593,Essigny-le-Grand,2,Aisne,32,Hauts-de-France,2017-04-07 00:00,Eolien,10000,5
PARC EOLIEN DE QUINT 2,17W0000003791418,80315,49.72933331,2.257579769,Flers-sur-Noye,80,Somme,32,Hauts-de-France,2017-04-04 00:00,Eolien,8000,4
Confidentiel,17W0000004830697,86053,46.72350178,0.154205858,Champigny en Rochereau,86,Vienne,75,Nouvelle-Aquitaine,2017-03-28 00:00,Eolien,8000,4
ENERGIES DU PLATEAU CENTRAL,17W000000390257M,25602,47.40923362,6.391270503,Vergranne,25,Doubs,27,Bourgogne-Franche-Comt??,2017-03-27 00:00,Eolien,11120,4
PARC EOLIEN DU CHAMP DE LA GRAND'MERE,17W0000004155139,62154,50.23702465,2.268372602,Bonni??res,62,Pas-de-Calais,32,Hauts-de-France,2017-03-24 00:00,Eolien,12000,6
PARC EOLIEN DE LA CROIX NOIRE,17W0000004171088,62092,50.27552468,2.485844762,Beaufort-Blavincourt,62,Pas-de-Calais,32,Hauts-de-France,2017-03-24 00:00,Eolien,12000,6
PARC EOLIEN DU PLATEAU DE SAVERNAT 2,17W000000051535N,3212,46.30920239,2.494446255,Quinssaines,3,Allier,84,Auvergne-Rh??ne-Alpes,2017-03-21 00:00,Eolien,4000,2
ENERGIES DU PLATEAU CENTRAL,17W0000000519438,25604,47.3971039,6.351833096,Verne,25,Doubs,27,Bourgogne-Franche-Comt??,2017-03-20 00:00,Eolien,8340,3
CHALEONS ENERGIES,17W000000051086Q,44164,47.09589488,-1.87983638,Saint-Hilaire-de-Chal??ons,44,Loire-Atlantique,52,Pays de la Loire,2017-03-16 00:00,Eolien,6150,3
PARC EOLIEN DE MONTFRECH,17W000000434374R,12270,44.30006388,3.089151006,S??v??rac d'Aveyron,12,Aveyron,76,Occitanie,2017-03-11 00:00,Eolien,9400,4
PARC EOLIEN USSON,17W0000004897256,86034,46.35558044,0.581776252,Bouresse,86,Vienne,75,Nouvelle-Aquitaine,2017-03-08 00:00,Eolien,10000,5
PARC EOLIEN DE QUINT 1,17W000000379257Q,80315,49.72933331,2.257579769,Flers-sur-Noye,80,Somme,32,Hauts-de-France,2017-03-04 00:00,Eolien,10000,5
Confidentiel,17W0000000525586,35218,47.9280509,-1.616137696,Le Petit-Fougeray,35,Ille-et-Vilaine,53,Bretagne,2017-03-03 00:00,Eolien,10000,5
CHAMPS CHAGNOTS,17W000000490001D,86123,46.54335498,0.082149715,Lavausseau,86,Vienne,75,Nouvelle-Aquitaine,2017-03-01 00:00,Eolien,9000,3
EOLIENNE DE LA VALLEE GENTILLESSE,17W0000001567693,51141,48.84331561,4.54286173,La Chauss??e-sur-Marne,51,Marne,44,Grand-Est,2017-02-28 00:00,Eolien,3000,1
CE DE LA VALLEE GENTILLESSE,17W000000381654D,51141,48.84331561,4.54286173,La Chauss??e-sur-Marne,51,Marne,44,Grand-Est,2017-02-28 00:00,Eolien,3000,1
PE MSE LA CRETE TARLARE,17W000000381245U,62304,50.58392336,2.251406266,Erny-Saint-Julien,62,Pas-de-Calais,32,Hauts-de-France,2017-02-28 00:00,Eolien,8200,4
SNC GATINAIS 1,17W000000428992O,77009,48.18127559,2.55657978,Arville,77,Seine-et-Marne,11,Ile-de-France,2017-02-21 00:00,Eolien,12000,6
ENERGIES DU PLATEAU CENTRAL,17W0000003845348,25604,47.3971039,6.351833096,Verne,25,Doubs,27,Bourgogne-Franche-Comt??,2017-02-13 00:00,Eolien,8340,3
ENERGIES DU RECHET,17W000000383952W,25624,47.36155004,6.235138093,Villers-Gr??lot,25,Doubs,27,Bourgogne-Franche-Comt??,2017-02-13 00:00,Eolien,8340,3
Ferme Eolienne de la Sabli??re Dave 1,17W000000931549Z,80209,49.7265282,2.555457178,Contoire,80,Somme,32,Hauts-de-France,2017-02-11 00:00,Eolien,16000,
LUSSAC TRANCHE 2,17W000000439926Q,87087,46.34175282,1.175915925,Lussac-les-??glises,87,Haute-Vienne,75,Nouvelle-Aquitaine,2017-02-10 00:00,Eolien,9000,3
PARC EOLIEN LES BALLENDAUX,17W000000434169S,61153,48.71523656,-0.110793648,??couch??-les-Vall??es,61,Orne,28,Normandie,2017-02-10 00:00,Eolien,10000,5
PARC EOLIEN D'YPREVILLE,17W000000439976B,76710,49.66495968,0.52142134,Tr??mauville,76,Seine-Maritime,28,Normandie,2017-02-10 00:00,Eolien,12000,6
PARC EOLIEN DE SMERMESNIL,17W000000439967C,76677,49.854797,1.486914639,Smermesnil,76,Seine-Maritime,28,Normandie,2017-02-10 00:00,Eolien,15000,5
PARC EOLIEN DU MONT DE BAGNY 2,17W0000004090509,59118,50.03759799,3.466029654,Busigny,59,Nord,32,Hauts-de-France,2017-02-08 00:00,Eolien,12800,4
PARC EOLIEN DU MONT DE BAGNY 1,17W000000384665U,59118,50.03759799,3.466029654,Busigny,59,Nord,32,Hauts-de-France,2017-02-08 00:00,Eolien,12800,4
EOLIEN LE NITIS 1,17W000000390307X,8286,49.4366028,4.449852867,M??nil-Annelles,8,Ardennes,44,Grand-Est,2017-02-05 00:00,Eolien,11750,5
PARC EOLIEN DE CHEPPES LA PRAIRIE,17W0000003843469,51148,48.8177074,4.442167334,Cheppes-la-Prairie,51,Marne,44,Grand-Est,2017-01-26 00:00,Eolien,10250,5
EOLIENNES DU SOISSONNAIS,17W000000147723S,2243,49.40785354,3.366400205,Crouy,2,Aisne,32,Hauts-de-France,2017-01-23 00:00,Eolien,12000,4
PARC EOLIEN DE LA COTE NOTRE DAME 1,17W000000382250W,10172,48.61518294,4.121611919,Herbisse,10,Aube,44,Grand-Est,2017-01-20 00:00,Eolien,3250,1
PARC EOLIEN DE LA COTE NOTRE DAME 2,17W0000003800189,10172,48.61518294,4.121611919,Herbisse,10,Aube,44,Grand-Est,2017-01-20 00:00,Eolien,3250,1
EOLIENNE EPLESSIER I,17W000000389959P,80273,49.78433064,1.940468775,??plessier,80,Somme,32,Hauts-de-France,2017-01-20 00:00,Eolien,12500,5
ENERGIES DU RECHET,17W000000383141W,25624,47.36155004,6.235138093,Villers-Gr??lot,25,Doubs,27,Bourgogne-Franche-Comt??,2017-01-19 00:00,Eolien,11120,4
EOLIENNES BUSSY 1A,17W000000397517O,51099,48.80307999,4.251364959,Bussy-Lettr??e,51,Marne,44,Grand-Est,2017-01-16 00:00,Eolien,9426,4
LES EOLIENNES DE CONQUEREUIL,17W000000445814E,44044,47.64885191,-1.762228164,Conquereuil,44,Loire-Atlantique,52,Pays de la Loire,2017-01-12 00:00,Eolien,10000,5
PARC EOLIEN DE BOISSY ENERGIE 1,17W000000413979A,91079,48.38241466,2.170050867,Boissy-la-Rivi??re,91,Essonne,11,Ile-de-France,2017-01-08 00:00,Eolien,7500,3
EOLIEN LES RENARDIERES 1,17W000000041290X,10077,48.56770067,4.072295285,Champigny-sur-Aube,10,Aube,44,Grand-Est,2017-01-08 00:00,Eolien,9000,3
LES RENARDIERES 2,17W000000153406H,10077,48.56770067,4.072295285,Champigny-sur-Aube,10,Aube,44,Grand-Est,2017-01-08 00:00,Eolien,12000,4
EOLIEN SCAER LE MERDY,17W0000000668577,29274,48.02799031,-3.730738358,Sca??r,29,Finist??re,53,Bretagne,2017-01-07 00:00,Eolien,8200,4
ALBINE ENERGIES,17W000000403347G,81005,43.44394746,2.528119695,Albine,81,Tarn,76,Occitanie,2017-01-06 00:00,Eolien,6000,3
PARC EOLIEN DE SOULANES,17W000000056578H,81005,43.44394746,2.528119695,Albine,81,Tarn,76,Occitanie,2017-01-06 00:00,Eolien,10000,5
EOLIENNE DE LA VALLEEE AUX GRILLONS,17W000000413123W,10057,48.42304471,3.497424005,Bouy-sur-Orvin,10,Aube,44,Grand-Est,2017-01-06 00:00,Eolien,11000,5
EXTENSION PARC DES 4 CHEMINS,17W000000377503A,51179,48.90390082,4.623029165,Coup??ville,51,Marne,44,Grand-Est,2017-01-03 00:00,Eolien,8710,3
PARC DU MOULIN DE PIERRE NORD,17W0000004044906,28051,48.18121889,1.38533487,Bonneval,28,Eure-et-Loir,24,Centre-Val de Loire,2017-01-02 00:00,Eolien,9225,3
PARC DU MOULIN DE PIERRE SUD,17W000000431638Y,28051,48.18121889,1.38533487,Bonneval,28,Eure-et-Loir,24,Centre-Val de Loire,2017-01-02 00:00,Eolien,9225,3
priv??,17W000000484472Y,79195,46.94031724,-0.596385418,Nueil-les-Aubiers,79,Deux-S??vres,75,Nouvelle-Aquitaine,2017-01-02 00:00,Eolien,12300,1
ENERGIES DU PLATEAU CENTRAL,17W000000387059Y,25032,47.38086584,6.385324347,Autechaux,25,Doubs,27,Bourgogne-Franche-Comt??,2016-12-28 00:00,Eolien,8340,3
FUTURES ENERGIES CERY,17W0000003794968,51106,48.83359463,4.341817634,Cernon,51,Marne,44,Grand-Est,2016-12-26 00:00,Eolien,12300,6
PARC EOLIEN DE LA VOIE ROMAINE 4,17W000000383345G,51574,48.8465791,4.421005099,Togny-aux-B??ufs,51,Marne,44,Grand-Est,2016-12-22 00:00,Eolien,2000,1
PARC EOLIEN DU BOIS DE MELAC,17W0000000464544,34121,43.76621939,3.183100968,Joncels,34,H??rault,76,Occitanie,2016-12-22 00:00,Eolien,4600,12
PARC EOLIEN DE CAP ESPIGNE,17W000000077159K,34121,43.76621939,3.183100968,Joncels,34,H??rault,76,Occitanie,2016-12-22 00:00,Eolien,11500,45
CEOLLMO10,17W0000003887583,10336,48.38005231,4.051878859,Saint-Beno??t-sur-Seine,10,Aube,44,Grand-Est,2016-12-19 00:00,Eolien,12800,4
PARC EOLIEN DE LA COTE NOTRE DAME 4,17W0000000435001,10172,48.61518294,4.121611919,Herbisse,10,Aube,44,Grand-Est,2016-12-16 00:00,Eolien,2200,1
SAS SEPE DU PLATEAU LIGNE SUD,17W0000004158778,51167,48.73927595,4.39164452,Coole,51,Marne,44,Grand-Est,2016-12-16 00:00,Eolien,6000,3
PARC EOLIEN DE LA COTE NOTRE DAME 3,17W000000407412B,10172,48.61518294,4.121611919,Herbisse,10,Aube,44,Grand-Est,2016-12-16 00:00,Eolien,7850,3
SAS SEPE DU PLATEAU LIGNE NORD,17W000000058130E,51167,48.73927595,4.39164452,Coole,51,Marne,44,Grand-Est,2016-12-16 00:00,Eolien,10000,5
PARC EOLIEN DE TERRES BLANCHES 1,17W000000431139F,26162,45.2960582,5.041159432,Lens-Lestang,26,Dr??me,84,Auvergne-Rh??ne-Alpes,2016-12-15 00:00,Eolien,4000,2
PARC EOLIEN DE TERRES BLANCHES 2,17W000000098041Q,26162,45.2960582,5.041159432,Lens-Lestang,26,Dr??me,84,Auvergne-Rh??ne-Alpes,2016-12-15 00:00,Eolien,10000,5
PARC EOLIEN LES TRENTES,17W000000418826A,60011,49.64140812,2.833950918,Amy,60,Oise,32,Hauts-de-France,2016-12-12 00:00,Eolien,10000,5
PARC EOLIEN DE LA VOIE DU MOULIN,17W000000052083R,76434,49.39722829,1.27517747,Mesnil-Raoul,76,Seine-Maritime,28,Normandie,2016-12-10 00:00,Eolien,10000,5
MED00182 SAMBRES 2,17W000000413321S,11319,43.39396528,2.374779052,Roquef??re,11,Aude,76,Occitanie,2016-12-07 00:00,Eolien,12000,6
EDP DAMMARIE,17W000000908330A,28122,48.33782175,1.497418378,Dammarie,28,Eure-et-Loir,24,Centre-Val de Loire,2016-12-07 00:00,Eolien,12000,6
PARC EOLIEN DE COURVAUDON,17W0000000499368,14195,49.02684713,-0.573849021,Courvaudon,14,Calvados,28,Normandie,2016-12-04 00:00,Eolien,6456,3
MIGNAUDIERES,17W000000487830J,86038,46.35704593,0.472294725,Brion,86,Vienne,75,Nouvelle-Aquitaine,2016-12-02 00:00,Eolien,12200,6
ENERGIES DU PLATEAU CENTRAL 2,17W000000379387D,25377,47.42982097,6.37991516,M??sandans,25,Doubs,27,Bourgogne-Franche-Comt??,2016-11-30 00:00,Eolien,11120,4
FERME EOLIENNE DE MASSAY 2- LA BEAUCE,17W000000388272T,18140,47.15490905,1.985601166,Massay,18,Cher,24,Centre-Val de Loire,2016-11-29 00:00,Eolien,9000,1
EOLIENNE DE MASSAY 2-LES TERRAJOTS,17W000000379633O,18140,47.15490905,1.985601166,Massay,18,Cher,24,Centre-Val de Loire,2016-11-29 00:00,Eolien,11200,1
PARC EOLIEN DE SAONE ET MADON,17W000000425387J,88149,48.15371412,6.085567036,Dommartin-l??s-Vallois,88,Vosges,44,Grand-Est,2016-11-25 00:00,Eolien,8000,4
PARC EOLIEN DE NEUILLY 1,17W000000384290A,2543,49.16263667,3.264362699,Neuilly-Saint-Front,2,Aisne,32,Hauts-de-France,2016-11-25 00:00,Eolien,10250,5
PARC EOLIEN DU PLATEAU DE SAVERNAT 1,17W000000087017Y,3212,46.30920239,2.494446255,Quinssaines,3,Allier,84,Auvergne-Rh??ne-Alpes,2016-11-24 00:00,Eolien,12000,6
PARC EOLIEN DE GOURLUS 3 - WP FRANCE 4,17W0000000634571,51244,48.78246597,4.379411971,Faux-V??signeul,51,Marne,44,Grand-Est,2016-11-24 00:00,Eolien,12800,4
PARC EOLIEN DE GOURLUS 1 - WP FRANCE 4,17W000000386803Y,51244,48.78246597,4.379411971,Faux-V??signeul,51,Marne,44,Grand-Est,2016-11-24 00:00,Eolien,12800,4
PARC EOLIEN DE GOURLUS 2 - WP FRANCE 4,17W000000398383E,51244,48.78246597,4.379411971,Faux-V??signeul,51,Marne,44,Grand-Est,2016-11-24 00:00,Eolien,12800,4
MONNES ENERGIES (NEUILLY2),17W0000003842586,2543,49.16263667,3.264362699,Neuilly-Saint-Front,2,Aisne,32,Hauts-de-France,2016-11-23 00:00,Eolien,6000,3
ENERGIES DU RECHET,17W000000386746K,25506,47.38991845,6.262502182,Rougemontot,25,Doubs,27,Bourgogne-Franche-Comt??,2016-11-22 00:00,Eolien,11120,4
ENERTRAG II,17W000000489972Q,86055,46.18906279,0.409088341,La Chapelle-B??ton,86,Vienne,75,Nouvelle-Aquitaine,2016-11-21 00:00,Eolien,16000,8
CENTRALE EOLIENNE LES MONTS,17W0000004177926,10352,48.35669053,4.071987379,Sainte-Maure,10,Aube,44,Grand-Est,2016-11-18 00:00,Eolien,13200,4
S.E EOLIENNE EPLESSIER III,17W000000423404I,80273,49.78433064,1.940468775,??plessier,80,Somme,32,Hauts-de-France,2016-11-16 00:00,Eolien,10000,4
MED00070 BERNAGUES,17W000000046047H,34205,43.75612104,3.26564673,Les Plans,34,H??rault,76,Occitanie,2016-11-15 00:00,Eolien,16000,63
EOL LE SOUFFLE DES PELLICORNES,17W000000074582O,59405,50.16021584,3.067818917,M??uvres,59,Nord,32,Hauts-de-France,2016-11-08 00:00,Eolien,9900,3
priv??,17W000000490416L,79134,46.85644277,-0.24171979,Gl??nay,79,Deux-S??vres,75,Nouvelle-Aquitaine,2016-11-08 00:00,Eolien,13200,1
priv??,17W000000482703E,79134,46.85644277,-0.24171979,Gl??nay,79,Deux-S??vres,75,Nouvelle-Aquitaine,2016-11-08 00:00,Eolien,16500,1
PARC EOLIEN DE PASILLY NORD,17W000000377693G,89290,47.70253459,4.083419926,Pasilly,89,Yonne,27,Bourgogne-Franche-Comt??,2016-11-07 00:00,Eolien,10000,5
PARC EOLIEN DE PASILLY SUD,17W0000003894946,89290,47.70253459,4.083419926,Pasilly,89,Yonne,27,Bourgogne-Franche-Comt??,2016-11-07 00:00,Eolien,10000,5
ONZE MUIDS  3,17W0000004271511,2070,49.87936513,3.486654564,Bernot,2,Aisne,32,Hauts-de-France,2016-11-05 00:00,Eolien,10110,3
ENERTRAG SANTERRE II,17W000000044011B,80473,49.75568199,2.814510917,Liancourt-Fosse,80,Somme,32,Hauts-de-France,2016-10-26 00:00,Eolien,6000,27
ENERGIES DU RECHET,17W000000379932E,25506,47.38991845,6.262502182,Rougemontot,25,Doubs,27,Bourgogne-Franche-Comt??,2016-10-24 00:00,Eolien,8340,3
J.VILE01 - ADP 01 DE LA FERME EOLIENNE DE JOUX-LA-VILLE,17W000000013643Y,89208,47.61959702,3.870082099,Joux-la-Ville,89,Yonne,27,Bourgogne-Franche-Comt??,2016-10-20 00:00,Eolien,44000,22
PARC EOLIEN DE BLOMBAY L'ECHELLE,17W0000000813735,8071,49.81597413,4.454101477,Blombay,8,Ardennes,44,Grand-Est,2016-10-19 00:00,Eolien,8000,4
PARC EOLIEN DE MELIER,17W000000382821F,80061,49.81680776,1.770870383,Beaucamps-le-Jeune,80,Somme,32,Hauts-de-France,2016-10-18 00:00,Eolien,8200,4
FERME EOLIENNE DU CHEMIN DE L'ORMELET,17W000000046983E,80219,49.72111087,2.076001222,Courcelles-sous-Thoix,80,Somme,32,Hauts-de-France,2016-10-18 00:00,Eolien,11500,5
ENERGIES DU PLATEAU CENTRAL 2,17W0000003846603,25247,47.44824721,6.411035074,Fontenelle-Montby,25,Doubs,27,Bourgogne-Franche-Comt??,2016-10-13 00:00,Eolien,11120,4
C.E. DU COIN MALO - CECOM 2,17W000000384199X,80360,50.06126656,1.566528242,Fressenneville,80,Somme,32,Hauts-de-France,2016-10-11 00:00,Eolien,9200,4
CENTRALE EOLIENNE DU COIN MALO-CECOM,17W000000390047X,80360,50.06126656,1.566528242,Fressenneville,80,Somme,32,Hauts-de-France,2016-10-11 00:00,Eolien,11500,5
PARC EOLIEN DE LA CHAUSSEE BRUNEHAUT 1,17W000000378033G,59289,50.2223989,3.479710666,Haussy,59,Nord,32,Hauts-de-France,2016-10-10 00:00,Eolien,9900,3
PARC EOLIEN DE LA CHAUSSEE BRUNEHAUT 2,17W000000419865W,59289,50.2223989,3.479710666,Haussy,59,Nord,32,Hauts-de-France,2016-10-10 00:00,Eolien,9900,3
EOL LES 4 BORNE N??2,17W000000425723T,2468,49.74513935,3.76520545,Marle,2,Aisne,32,Hauts-de-France,2016-10-06 00:00,Eolien,11500,4
PARC EOLIEN DES 4 BORNES N??1,17W000000043698S,2468,49.74513935,3.76520545,Marle,2,Aisne,32,Hauts-de-France,2016-10-06 00:00,Eolien,11500,5
PARC EOLIEN D'AULNAY L'AITRE,17W000000044679R,51022,48.82593588,4.568220173,Aulnay-l'A??tre,51,Marne,44,Grand-Est,2016-09-28 00:00,Eolien,8000,4
FERME EOLIENNE DE LA SAUGERE,17W000000419970Z,44213,47.40231333,-1.024327441,Loireauxence,44,Loire-Atlantique,52,Pays de la Loire,2016-09-16 00:00,Eolien,9200,4
SOPRELTA,17W000000378120L,89405,47.61239142,3.408034343,Les Hauts de Forterre,89,Yonne,27,Bourgogne-Franche-Comt??,2016-09-15 00:00,Eolien,6000,3
FERME EOLIENNE ARGUEL,17W0000000520351,80026,49.87658317,1.807436672,Arguel,80,Somme,32,Hauts-de-France,2016-09-14 00:00,Eolien,11650,5
FERME EOL DU CATELET,17W000000067507T,80022,49.8911988,1.784680355,Andainville,80,Somme,32,Hauts-de-France,2016-09-14 00:00,Eolien,11750,5
priv??,17W0000004884774,79329,46.98286284,-0.199581467,Thouars,79,Deux-S??vres,75,Nouvelle-Aquitaine,2016-09-05 00:00,Eolien,7000,1
Confidentiel,17W000000080122Z,2070,49.87936513,3.486654564,Bernot,2,Aisne,32,Hauts-de-France,2016-09-05 00:00,Eolien,10110,3
CENTRALE EOLIENNE DE CHEMIN PERRE 2,17W000000150159N,10254,48.57623449,3.515992251,Montpothier,10,Aube,44,Grand-Est,2016-08-29 00:00,Eolien,8000,4
confidentiel,17W000000921607G,57563,49.09034091,6.477500199,Raville,57,Moselle,44,Grand-Est,2016-08-24 00:00,Eolien,10000,
confidentiel,17W000000922054Q,57563,49.09034091,6.477500199,Raville,57,Moselle,44,Grand-Est,2016-08-24 00:00,Eolien,12500,
PARC EOLIEN DES PELURES BLANCHES 2,17W0000000849385,36199,47.0110072,1.995440562,Sainte-Lizaigne,36,Indre,24,Centre-Val de Loire,2016-08-16 00:00,Eolien,10000,4
CENTRALE EOLIENNE CHEMIN PERRE 1,17W000000431113X,10420,48.59457799,3.547775333,Villenauxe-la-Grande,10,Aube,44,Grand-Est,2016-08-16 00:00,Eolien,10000,5
LA JACTERIE SAS,17W0000004175796,49092,47.22722685,-0.73018816,Chemill??-en-Anjou,49,Maine-et-Loire,52,Pays de la Loire,2016-08-16 00:00,Eolien,12500,5
priv??,17W000000486077U,79022,46.8552025,-0.136835891,Availles-Thouarsais,79,Deux-S??vres,75,Nouvelle-Aquitaine,2016-08-12 00:00,Eolien,10000,1
priv??,17W000000489542E,79022,46.8552025,-0.136835891,Availles-Thouarsais,79,Deux-S??vres,75,Nouvelle-Aquitaine,2016-08-12 00:00,Eolien,10000,1
EOL CHAUSSE BRUNEHAUT N??4,17W000000148924D,60390,49.54403199,2.165456555,Maulers,60,Oise,32,Hauts-de-France,2016-08-12 00:00,Eolien,10267,5
EOLIENNES CHAUSSEE BRUNEHAUT N??1,17W0000004135367,60465,49.54777743,2.214127644,Noir??mont,60,Oise,32,Hauts-de-France,2016-08-12 00:00,Eolien,10267,5
CEPE DU BLAISERON SARL,17W000000381260Y,52284,48.33713134,5.031636735,Lesch??res-sur-le-Blaiseron,52,Haute-Marne,44,Grand-Est,2016-08-12 00:00,Eolien,12000,6
PARC EOLIEN DE COASVOUT,17W000000047179W,29266,48.51131715,-3.938133776,Saint-Th??gonnec Loc-Eguiner,29,Finist??re,53,Bretagne,2016-08-08 00:00,Eolien,4000,5
PARC EOLIEN DU BOIS DU GOULET,17W000000052440T,14027,49.01447854,-0.633929763,Les Monts d'Aunay,14,Calvados,28,Normandie,2016-08-04 00:00,Eolien,10000,4
AIR WATT ENERGY - STE PAZANNE,17W0000001640923,44186,47.08399387,-1.818144627,Sainte-Pazanne,44,Loire-Atlantique,52,Pays de la Loire,2016-08-03 00:00,Eolien,12000,6
FERME EOLIENNE LE BREIL,17W000000068605O,44180,47.53092273,-1.194410755,Vallons-de-l'Erdre,44,Loire-Atlantique,52,Pays de la Loire,2016-07-26 00:00,Eolien,9400,4
FERME EOLIENNE DES DEUX MOULINS,17W0000000581346,80709,49.90239225,1.826310054,Saint-Maulvis,80,Somme,32,Hauts-de-France,2016-07-26 00:00,Eolien,11750,5
priv??,17W0000004883014,79005,46.83297251,-0.135880248,Airvault,79,Deux-S??vres,75,Nouvelle-Aquitaine,2016-07-26 00:00,Eolien,16500,1
CEPE DU FIEF BARRET,17W000000158037Y,85121,46.4393119,-0.947017086,Le Langon,85,Vend??e,52,Pays de la Loire,2016-07-25 00:00,Eolien,7200,9
MED00185 SAMBRES 5,17W000000048366S,11222,43.39952556,2.357667546,Mas-Cabard??s,11,Aude,76,Occitanie,2016-07-20 00:00,Eolien,10000,5
PARC EOLIEN DE NIOLANS,17W000000050203G,7092,44.68861942,4.546951148,Freyssenet,7,Ard??che,84,Auvergne-Rh??ne-Alpes,2016-07-15 00:00,Eolien,900,1
EOLIENNES FLABA,17W000000047839G,8354,49.58916905,4.961924188,Raucourt-et-Flaba,8,Ardennes,44,Grand-Est,2016-07-13 00:00,Eolien,10000,5
FERME EOLIENNE DE TRANS ET COURCITE,17W0000000479499,53083,48.30454879,-0.25360687,Courcit??,53,Mayenne,52,Pays de la Loire,2016-07-12 00:00,Eolien,10110,3
FERME EOLIENNE DES HAUTS DE VIMEU,17W000000429122Z,80026,49.87658317,1.807436672,Arguel,80,Somme,32,Hauts-de-France,2016-07-10 00:00,Eolien,7050,3
AILES DES CRETES C2 HEBERGEUR,17W0000004612157,8095,49.57202925,4.699714018,Chagny,8,Ardennes,44,Grand-Est,2016-07-07 00:00,Eolien,2400,3
Confidentiel,17W000000412990R,80088,49.90871746,3.101869762,Bernes,80,Somme,32,Hauts-de-France,2016-07-07 00:00,Eolien,12000,6
LA MILAINE 2,17W000000379940F,59097,50.14080572,3.044416124,Boursies,59,Nord,32,Hauts-de-France,2016-07-06 00:00,Eolien,6600,2
Confidentiel,17W000000416436X,59097,50.14080572,3.044416124,Boursies,59,Nord,32,Hauts-de-France,2016-07-06 00:00,Eolien,9900,3
TREFFENDEL LANDELLES,17W000000157370T,35340,48.03139534,-2.008183736,Treffendel,35,Ille-et-Vilaine,53,Bretagne,2016-06-29 00:00,Eolien,8200,4
MED00184 SAMBRES 4,17W000000075150B,11319,43.39396528,2.374779052,Roquef??re,11,Aude,76,Occitanie,2016-06-28 00:00,Eolien,10000,5
EOLIENNES LA TABATIERE,17W000000424643W,8354,49.58916905,4.961924188,Raucourt-et-Flaba,8,Ardennes,44,Grand-Est,2016-06-28 00:00,Eolien,10000,5
PARC EOLIEN DE FALFOSSE,17W000000047884B,76156,49.80641996,0.597683772,Canouville,76,Seine-Maritime,28,Normandie,2016-06-24 00:00,Eolien,11750,5
ENERGIES DES LONGS CHAMPS,17W000000042533S,76133,49.87027142,0.892619906,Le Bourg-Dun,76,Seine-Maritime,28,Normandie,2016-06-23 00:00,Eolien,11500,5
MED00183 SAMBRES 3,17W000000069618A,11319,43.39396528,2.374779052,Roquef??re,11,Aude,76,Occitanie,2016-06-22 00:00,Eolien,10000,5
EOLE MOULIN TIZON,17W000000086882X,35192,48.25076301,-1.22879249,Montreuil-des-Landes,35,Ille-et-Vilaine,53,Bretagne,2016-06-21 00:00,Eolien,12000,6
EOL TIGNY NOYELLE,17W000000158414U,62815,50.35496229,1.708037505,Tigny-Noyelle,62,Pas-de-Calais,32,Hauts-de-France,2016-06-16 00:00,Eolien,11500,9
PARC EOLIEN TIGNY NOYELLE II,17W000000425429T,62815,50.35496229,1.708037505,Tigny-Noyelle,62,Pas-de-Calais,32,Hauts-de-France,2016-06-16 00:00,Eolien,11500,9
Confidentiel,17W000000046610G,59176,50.13214858,3.013793845,Doignies,59,Nord,32,Hauts-de-France,2016-06-13 00:00,Eolien,6600,2
LES VENTS DE MALET,17W000000413674W,59176,50.13214858,3.013793845,Doignies,59,Nord,32,Hauts-de-France,2016-06-13 00:00,Eolien,9900,3
LES PELLICORNES 2,17W000000384237E,59405,50.16021584,3.067818917,M??uvres,59,Nord,32,Hauts-de-France,2016-06-10 00:00,Eolien,6600,2
PARC EOLIEN DU BLANC MONT,17W000000090829O,2454,49.51651788,4.000487179,La Malmaison,2,Aisne,32,Hauts-de-France,2016-06-10 00:00,Eolien,13800,6
SFE PARC EOLIEN DE L ORME CHAMPAGNE,17W000000066917F,51340,48.73666328,4.467001608,Maisons-en-Champagne,51,Marne,44,Grand-Est,2016-06-10 00:00,Eolien,14000,7
Confidentiel,17W0000000608198,12077,43.89243704,3.200788959,Cornus,12,Aveyron,76,Occitanie,2016-06-07 00:00,Eolien,900,1
PARC EOLIEN DE RAMONTS,17W0000004066047,76488,49.7854252,0.588453866,Ouainville,76,Seine-Maritime,28,Normandie,2016-06-07 00:00,Eolien,11750,5
PARC EOLIEN DE LA LUZETTE,17W000000045168A,15214,44.87869656,2.124285152,Saint-Saury,15,Cantal,84,Auvergne-Rh??ne-Alpes,2016-06-06 00:00,Eolien,14000,7
EOLIENNES DE L'OURCQ ET DU CLIGNON,17W000000159195B,2679,49.11894991,3.21526676,Saint-Gengoulph,2,Aisne,32,Hauts-de-France,2016-05-30 00:00,Eolien,12000,5
PARC EOLIEN NORDEX VIII SAS,17W000000059190S,60365,49.60462931,2.039255212,Lihus,60,Oise,32,Hauts-de-France,2016-05-27 00:00,Eolien,12500,5
PARC EOLIEN DE SEUIL MONT LAURENT,17W0000000612969,8416,49.47418542,4.452899669,Seuil,8,Ardennes,44,Grand-Est,2016-05-25 00:00,Eolien,10000,5
PARC EOLIEN DE PLIBOUX,17W000000056214I,79212,46.16471953,0.122771203,Pliboux,79,Deux-S??vres,75,Nouvelle-Aquitaine,2016-05-17 00:00,Eolien,12000,6
SOCIETE D'EXPL. EOL. EPLESSIER II,17W000000054402R,80273,49.78433064,1.940468775,??plessier,80,Somme,32,Hauts-de-France,2016-05-12 00:00,Eolien,10000,4
FERME EOLIENNE DE TASSILLE,17W000000413747V,72348,47.98817659,-0.094699262,Tassill??,72,Sarthe,52,Pays de la Loire,2016-04-27 00:00,Eolien,8000,4
FE ONZE MUIDS 2,17W000000425888Y,2070,49.87936513,3.486654564,Bernot,2,Aisne,32,Hauts-de-France,2016-04-26 00:00,Eolien,10110,3
ENERGIE EOLIENNE DE PLOUGUERNEVEL,17W0000004292962,22220,48.23407174,-3.247117324,Plouguern??vel,22,C??tes-d'Armor,53,Bretagne,2016-04-25 00:00,Eolien,4000,5
MOHON 1 NORD 8 MW,17W000000155430A,56134,48.06336405,-2.495616296,Mohon,56,Morbihan,53,Bretagne,2016-04-25 00:00,Eolien,8000,4
PORTES DE LA COTE D'OR NORD OUEST,17W000000065928F,21221,47.04244159,4.648223496,Cussy-la-Colonne,21,C??te-d'Or,27,Bourgogne-Franche-Comt??,2016-04-25 00:00,Eolien,12000,6
MOHON 2 SUD 12MW,17W000000412618A,56134,48.06336405,-2.495616296,Mohon,56,Morbihan,53,Bretagne,2016-04-19 00:00,Eolien,12000,6
PARC EOLIEN DE FRANCOURVILLE,17W000000382076M,28160,48.40182124,1.662490556,Francourville,28,Eure-et-Loir,24,Centre-Val de Loire,2016-04-19 00:00,Eolien,12480,6
PARC EOLIEN DE DARGNIES EMBREVILLE,17W000000379753E,80265,50.03296086,1.552427752,Embreville,80,Somme,32,Hauts-de-France,2016-04-07 00:00,Eolien,13800,6
FERME EOLIENNE DE LA MADELEINE 2,17W000000413364A,28114,48.14878124,1.607806064,Courbehaye,28,Eure-et-Loir,24,Centre-Val de Loire,2016-04-04 00:00,Eolien,7500,3
Confidentiel,17W000000378329W,10153,48.45756039,3.507036126,Fontaine-M??con,10,Aube,44,Grand-Est,2016-04-04 00:00,Eolien,8000,4
PARC EOLIEN DE VISMES,17W0000000545544,80809,50.00292711,1.670865521,Vismes,80,Somme,32,Hauts-de-France,2016-04-03 00:00,Eolien,11500,5
NORDEX XI- PARC EOLIEN LIHUS 2,17W000000051914F,60365,49.60462931,2.039255212,Lihus,60,Oise,32,Hauts-de-France,2016-04-02 00:00,Eolien,10000,4
SAS ISAC-WATTS,17W000000157621U,44196,47.55440267,-2.066556186,S??v??rac,44,Loire-Atlantique,52,Pays de la Loire,2016-04-01 00:00,Eolien,8200,4
PARC EOLIEN DE THIBIE  1,17W0000004092242,51146,48.88603104,4.244251269,Cheniers,51,Marne,44,Grand-Est,2016-03-29 00:00,Eolien,10000,5
SAINT HILAIRE ENERGIES,17W000000160875S,44164,47.09589488,-1.87983638,Saint-Hilaire-de-Chal??ons,44,Loire-Atlantique,52,Pays de la Loire,2016-03-14 00:00,Eolien,12300,6
EOLIENNES BUSSY 1B,17W000000388284M,51099,48.80307999,4.251364959,Bussy-Lettr??e,51,Marne,44,Grand-Est,2016-03-12 00:00,Eolien,9426,4
ENERTRAG AISNE II SCS D'ANGUILCOURT,17W000000041842K,2123,49.72282997,3.396397683,Brissay-Choigny,2,Aisne,32,Hauts-de-France,2016-02-29 00:00,Eolien,12000,6
EOLIENNES SASSEVILLE ET DROSAY,17W0000000407202,76221,49.79216838,0.737326887,Drosay,76,Seine-Maritime,28,Normandie,2016-02-29 00:00,Eolien,15000,6
FERME EOLIENNE COSSE OUEST,17W0000001489633,53077,47.94585879,-0.934606329,Coss??-le-Vivien,53,Mayenne,52,Pays de la Loire,2016-02-23 00:00,Eolien,4700,2
FERME EOLIENNE ERBRAY 2,17W000000150582C,44054,47.66909291,-1.321858814,Erbray,44,Loire-Atlantique,52,Pays de la Loire,2016-02-15 00:00,Eolien,6900,3
priv??,17W000000490193F,79239,46.65726633,-0.342791989,Saint-Aubin-le-Cloud,79,Deux-S??vres,75,Nouvelle-Aquitaine,2016-02-05 00:00,Eolien,1600,1
PARC EOLIEN DE NESLE LA REPOSTE,17W000000069867Q,51395,48.63214831,3.55444537,Nesle-la-Reposte,51,Marne,44,Grand-Est,2016-02-02 00:00,Eolien,6150,3
PARC EOLIEN LE PLACIS VERT,17W000000428321Y,22046,48.29373127,-2.522468037,Le Men??,22,C??tes-d'Armor,53,Bretagne,2016-01-21 00:00,Eolien,4000,5
ENERTRAG AISNE IX - LES DIZY,17W000000388832H,2802,49.6626573,3.981520837,La Ville-aux-Bois-l??s-Dizy,2,Aisne,32,Hauts-de-France,2016-01-20 00:00,Eolien,8000,4
THIMERT,17W000000057003Q,28386,48.55496534,1.262068941,Thimert-G??telles,28,Eure-et-Loir,24,Centre-Val de Loire,2016-01-19 00:00,Eolien,2000,2
PARC EOLIEN DE ST CARADEC,17W0000000597394,22279,48.19223793,-2.867514661,Saint-Caradec,22,C??tes-d'Armor,53,Bretagne,2016-01-18 00:00,Eolien,6150,3
EOLIENNES BUSSY 2,17W000000381023B,51099,48.80307999,4.251364959,Bussy-Lettr??e,51,Marne,44,Grand-Est,2016-01-12 00:00,Eolien,7069,3
PARC EOLIEN TENBONREV,17W0000003880429,51472,48.82721578,4.61145384,Saint-Amand-sur-Fion,51,Marne,44,Grand-Est,2016-01-12 00:00,Eolien,15000,6
MAGDEEA1 - ADP A1 DE LA FERME EOLIENNE DE MAGDELEINE (LA),17W000000013644W,16197,46.04865181,0.078157803,La Magdeleine,16,Charente,75,Nouvelle-Aquitaine,2016-01-10 00:00,Eolien,24000,12
PARC EOLIEN DE THIBIE  2,17W000000419963W,51146,48.88603104,4.244251269,Cheniers,51,Marne,44,Grand-Est,2016-01-04 00:00,Eolien,8000,4
FERME EOLIENNE DE LA MADELEINE 1,17W0000000625661,28108,48.13151862,1.605774781,Cormainville,28,Eure-et-Loir,24,Centre-Val de Loire,2016-01-04 00:00,Eolien,10000,4
PARC EOLIEN D'ESCARDES,17W000000414139C,51071,48.65671567,3.489740644,Bouchy-Saint-Genest,51,Marne,44,Grand-Est,2015-12-24 00:00,Eolien,12000,6
PARC EOLIEN MAS DE NAI,17W000000153202X,34121,43.76621939,3.183100968,Joncels,34,H??rault,76,Occitanie,2015-12-23 00:00,Eolien,11900,14
PARC EOLIEN DE KERGLEUZIOU,17W000000146135D,29146,47.91294711,-3.842069925,Melgven,29,Finist??re,53,Bretagne,2015-12-17 00:00,Eolien,6000,3
FERME EOLIENNE DES VILLES D'OYSES,17W000000043259H,2473,49.70901173,3.398047661,Mayot,2,Aisne,32,Hauts-de-France,2015-12-14 00:00,Eolien,12500,5
CEPE DE BAJOUVE,17W000000040553W,63370,45.66204967,2.679635035,Saint-Julien-Puy-Lav??ze,63,Puy-de-D??me,84,Auvergne-Rh??ne-Alpes,2015-12-11 00:00,Eolien,12000,6
EOLIENNE CHAUSSEE BRUNEHAUT 3,17W000000427088J,60372,49.55190726,2.114948559,Luchy,60,Oise,32,Hauts-de-France,2015-12-01 00:00,Eolien,11500,5
PARC EOLIEN DE BASSE THIERACHE SUD 4,17W0000004156062,2386,49.95043095,3.665297895,Iron,2,Aisne,32,Hauts-de-France,2015-11-27 00:00,Eolien,8976,3
COQUELICOT 2B,17W0000004186763,80549,50.1005697,2.727665136,Miraumont,80,Somme,32,Hauts-de-France,2015-11-27 00:00,Eolien,9200,4
COQUELICOT 2A,17W0000004235418,80549,50.1005697,2.727665136,Miraumont,80,Somme,32,Hauts-de-France,2015-11-27 00:00,Eolien,9200,4
PARC EOLIEN VILLACERF,17W000000387205C,10409,48.40767776,4.002281173,Villacerf,10,Aube,44,Grand-Est,2015-11-27 00:00,Eolien,10000,5
PARC EOLIEN BASSE THIERACHE SUD 3,17W000000064482Y,2386,49.95043095,3.665297895,Iron,2,Aisne,32,Hauts-de-France,2015-11-26 00:00,Eolien,8976,3
CEPE DU BOIS DE LA SERRE SUD,17W000000154164A,11182,43.40608848,2.240160638,Lacombe,11,Aude,76,Occitanie,2015-11-19 00:00,Eolien,10000,5
FERME EOLIENNE COTEAUX,17W000000159258D,44121,47.6113611,-1.277735975,Petit-Auvern??,44,Loire-Atlantique,52,Pays de la Loire,2015-11-19 00:00,Eolien,13800,6
LAUR EOLE ENERGIE,17W000000415440A,31100,43.28415842,1.626325232,Calmont,31,Haute-Garonne,76,Occitanie,2015-11-19 00:00,Eolien,14350,7
EOL-CARREAU MANCEAU N??3,17W000000382361N,2264,49.63555757,4.013128802,Dizy-le-Gros,2,Aisne,32,Hauts-de-France,2015-11-18 00:00,Eolien,16000,8
FERME EOLIENNE COSSE EST,17W000000043652F,53077,47.94585879,-0.934606329,Coss??-le-Vivien,53,Mayenne,52,Pays de la Loire,2015-11-17 00:00,Eolien,6900,3
CHAMP DE L EPEE 2,17W000000420239M,10172,48.61518294,4.121611919,Herbisse,10,Aube,44,Grand-Est,2015-11-16 00:00,Eolien,8550,3
PARC EOLIEN DU CHAMP DE L'EPEE 1,17W000000074453Z,10172,48.61518294,4.121611919,Herbisse,10,Aube,44,Grand-Est,2015-11-16 00:00,Eolien,8550,3
PARC  EOLIEN DE LA HAUTE BORNE 2,17W000000048212I,80465,49.74569835,2.933094791,Languevoisin-Quiquery,80,Somme,32,Hauts-de-France,2015-11-09 00:00,Eolien,9000,3
FUTURES ENERGIES BETHENIVILLE,17W000000044412U,51054,49.29252531,4.363694576,B??theniville,51,Marne,44,Grand-Est,2015-11-09 00:00,Eolien,12000,6
INNOVENT BOISBERGUES,17W0000000810892,80108,50.15311615,2.222363238,Boisbergues,80,Somme,32,Hauts-de-France,2015-11-05 00:00,Eolien,3000,2
PARC EOLIEN DES TOUCHES 2,17W0000004136177,44205,47.4523564,-1.427568832,Les Touches,44,Loire-Atlantique,52,Pays de la Loire,2015-11-05 00:00,Eolien,5000,2
PARC EOLIEN DES TOUCHES 1,17W0000001572308,44205,47.4523564,-1.427568832,Les Touches,44,Loire-Atlantique,52,Pays de la Loire,2015-11-05 00:00,Eolien,10000,4
LES MOULINS A VENT DE KERMADEEN,17W000000155038A,29114,48.49809717,-3.665169863,Lann??anou,29,Finist??re,53,Bretagne,2015-10-27 00:00,Eolien,4000,5
PARC EOLIEN MONTAGNE FAYEL,17W000000045015Z,80559,49.91111827,1.986999521,Montagne-Fayel,80,Somme,32,Hauts-de-France,2015-10-27 00:00,Eolien,12000,6
FERME EOLIENNE DU CONFOLENTAIS SNC,17W0000000619076,16403,45.970191,0.447706258,Le Vieux-C??rier,16,Charente,75,Nouvelle-Aquitaine,2015-10-12 00:00,Eolien,12228,6
Confidentiel,17W000000060056Y,51129,48.80122035,3.658203366,Charleville,51,Marne,44,Grand-Est,2015-10-07 00:00,Eolien,10000,5
Confidentiel,17W000000081440G,51129,48.80122035,3.658203366,Charleville,51,Marne,44,Grand-Est,2015-10-07 00:00,Eolien,10000,5
PARC EOLIEN AUXERROIS A,17W000000422024X,89319,47.77960442,3.651374509,Quenne,89,Yonne,27,Bourgogne-Franche-Comt??,2015-09-29 00:00,Eolien,12000,6
PARC EOLIEN AUXERROIS B,17W000000154279U,89108,47.76804178,3.700361253,Chitry,89,Yonne,27,Bourgogne-Franche-Comt??,2015-09-24 00:00,Eolien,8000,4
PARC EOLIEN AUXERROIS C,17W000000052964W,89108,47.76804178,3.700361253,Chitry,89,Yonne,27,Bourgogne-Franche-Comt??,2015-09-22 00:00,Eolien,12000,6
PARC EOLIEN DU MONT HEUDELAN 2,17W000000421087E,51487,49.26516757,4.381911126,Saint-Hilaire-le-Petit,51,Marne,44,Grand-Est,2015-09-18 00:00,Eolien,9900,3
ENERGIE SAINT LADE,17W000000166519K,8107,49.53402501,4.247618754,Ch??teau-Porcien,8,Ardennes,44,Grand-Est,2015-09-16 00:00,Eolien,11750,5
MED00181 SAMBRES 1,17W000000085189F,11180,43.39340908,2.403006353,Labastide-Esparbairenque,11,Aude,76,Occitanie,2015-09-12 00:00,Eolien,10000,5
PARC EOLIEN LE MINERAI 1,17W0000000445663,22183,48.18608376,-2.585990332,Pl??met,22,C??tes-d'Armor,53,Bretagne,2015-09-02 00:00,Eolien,10000,4
COL DE FERRIERE,17W000000413550D,25177,47.34724208,6.527262973,Crosey-le-Grand,25,Doubs,27,Bourgogne-Franche-Comt??,2015-08-25 00:00,Eolien,2780,1
COL DE FERRIERE,17W000000078632F,25177,47.34724208,6.527262973,Crosey-le-Grand,25,Doubs,27,Bourgogne-Franche-Comt??,2015-08-25 00:00,Eolien,11120,4
FUTURES ENERGIES MONT HEUDLAN 1,17W000000050951E,51487,49.26516757,4.381911126,Saint-Hilaire-le-Petit,51,Marne,44,Grand-Est,2015-08-22 00:00,Eolien,9900,3
WPD,17W000000918901O,60160,49.60731683,2.736309661,Conchy-les-Pots,60,Oise,32,Hauts-de-France,2015-08-20 00:00,Eolien,11500,5
REE SARL,17W000000417264V,17017,45.9283336,-0.717220454,Archingeay,17,Charente-Maritime,75,Nouvelle-Aquitaine,2015-08-19 00:00,Eolien,8000,4
PARC EOLIEN LES VIGNOTTES 3,17W000000429203Z,51524,48.5824011,3.729704986,Saron-sur-Aube,51,Marne,44,Grand-Est,2015-08-07 00:00,Eolien,12000,6
PARC EOLIEN LES VIGNOTTES 1,17W0000001537332,51524,48.5824011,3.729704986,Saron-sur-Aube,51,Marne,44,Grand-Est,2015-07-30 00:00,Eolien,12000,6
PARC EOLIEN LES VIGNOTTES 2,17W000000046114S,51524,48.5824011,3.729704986,Saron-sur-Aube,51,Marne,44,Grand-Est,2015-07-30 00:00,Eolien,12000,6
L'ECOPARC DES ENERGIE 2,17W000000157282Q,76512,49.87874716,1.46198144,Puisenval,76,Seine-Maritime,28,Normandie,2015-07-29 00:00,Eolien,8200,4
L'ECOPARC DES ENERGIES 1,17W000000423807X,76512,49.87874716,1.46198144,Puisenval,76,Seine-Maritime,28,Normandie,2015-07-29 00:00,Eolien,8200,4
priv??,17W000000486392M,79074,46.13742128,0.048152017,La Chapelle-Pouilloux,79,Deux-S??vres,75,Nouvelle-Aquitaine,2015-07-28 00:00,Eolien,12200,1
PARC EOLIEN DU GATINAIS 1,17W000000051884Z,77297,48.15104973,2.597643554,Mondreville,77,Seine-et-Marne,11,Ile-de-France,2015-07-27 00:00,Eolien,12000,6
Confidentiel,17W000000057295O,54574,49.50559782,5.688947588,Villers-la-Ch??vre,54,Meurthe-et-Moselle,44,Grand-Est,2015-07-23 00:00,Eolien,8000,4
FE HAUT PLATEAU PICARD 2,17W000000042840J,80535,49.9405208,2.043757336,Le Mesge,80,Somme,32,Hauts-de-France,2015-07-17 00:00,Eolien,11500,5
FERME EOL HAUT PLATEAU PICARD 1,17W0000000814642,80535,49.9405208,2.043757336,Le Mesge,80,Somme,32,Hauts-de-France,2015-07-17 00:00,Eolien,13800,6
EOLIEN BOIS DE FOLLE VILLE,17W0000004001367,56024,48.06994658,-2.68732663,Br??han,56,Morbihan,53,Bretagne,2015-07-10 00:00,Eolien,8200,4
CEOLCHA51 LES CHATAIGNIERS 1,17W000000049921L,51380,48.88028691,3.560485563,Montmirail,51,Marne,44,Grand-Est,2015-07-04 00:00,Eolien,14000,7
FUTURES ENERGIES INVESTISSEMENTS 2,17W000000420200C,52167,48.16803888,5.222690643,Darmannes,52,Haute-Marne,44,Grand-Est,2015-06-30 00:00,Eolien,12000,6
FERME EOLIENNE DE MARSAIS 1,17W000000432074C,17221,46.12170505,-0.61947328,Marsais,17,Charente-Maritime,75,Nouvelle-Aquitaine,2015-06-17 00:00,Eolien,8000,4
FERME EOLIENNE DE MARSAIS 2,17W000000161855T,17221,46.12170505,-0.61947328,Marsais,17,Charente-Maritime,75,Nouvelle-Aquitaine,2015-06-17 00:00,Eolien,8000,4
FE DES VILLES D'OYSES L'ARBRE GUILMET,17W000000422736Z,2473,49.70901173,3.398047661,Mayot,2,Aisne,32,Hauts-de-France,2015-06-11 00:00,Eolien,15000,6
PARC  EOLIEN  LA HAUTE BORNE - CEHAB1,17W0000000502264,80465,49.74569835,2.933094791,Languevoisin-Quiquery,80,Somme,32,Hauts-de-France,2015-06-10 00:00,Eolien,12000,4
MED00175 L'ILE AUX RATS,17W000000060451S,84091,44.17746971,4.765852891,Piolenc,84,Vaucluse,93,Provence-Alpes-C??te d'Azur,2015-06-07 00:00,Eolien,2700,13
ENERTRAGTERNOIS VI,17W000000151510W,62258,50.35386761,2.264827309,Croisette,62,Pas-de-Calais,32,Hauts-de-France,2015-06-03 00:00,Eolien,12000,4
priv??,17W000000483262D,79074,46.13742128,0.048152017,La Chapelle-Pouilloux,79,Deux-S??vres,75,Nouvelle-Aquitaine,2015-05-22 00:00,Eolien,9150,1
SNC MSE LE MOULIN DE SEHEN,17W000000058976W,27404,48.89345569,0.557278907,Mesnil-Rousset,27,Eure,28,Normandie,2015-05-21 00:00,Eolien,12300,6
PARC EOLIEN DE FRENCQ,17W000000044070W,62354,50.56177723,1.689491614,Frencq,62,Pas-de-Calais,32,Hauts-de-France,2015-05-20 00:00,Eolien,6000,3
PORTES DE LA COTE D'OR EST,17W000000416685C,21065,47.08741659,4.741947037,Bessey-en-Chaume,21,C??te-d'Or,27,Bourgogne-Franche-Comt??,2015-05-20 00:00,Eolien,8000,4
CEPE PORTES DE COTE D'OR NORD EST,17W000000153915X,21065,47.08741659,4.741947037,Bessey-en-Chaume,21,C??te-d'Or,27,Bourgogne-Franche-Comt??,2015-05-20 00:00,Eolien,10000,5
EOLIENNES DE SOULVACHE,17W0000001475221,44200,47.82120497,-1.448070931,Soulvache,44,Loire-Atlantique,52,Pays de la Loire,2015-05-03 00:00,Eolien,8000,4
EOL HANGEST SUR SOMME 2,17W000000041497B,80416,49.97923049,2.038108319,Hangest-sur-Somme,80,Somme,32,Hauts-de-France,2015-05-03 00:00,Eolien,10250,5
EOL HANGEST SUR SOMME 1,17W000000165158V,80416,49.97923049,2.038108319,Hangest-sur-Somme,80,Somme,32,Hauts-de-France,2015-05-03 00:00,Eolien,10250,5
Confidentiel,17W000000399100A,80777,50.0942755,2.469500838,Vauchelles-l??s-Authie,80,Somme,32,Hauts-de-France,2015-05-02 00:00,Eolien,11500,5
LE MONT FAMILLOT,17W000000421195B,51259,48.87864912,4.540649011,Francheville,51,Marne,44,Grand-Est,2015-05-01 00:00,Eolien,3170,1
PARCS EOLIENS DE VAUX COULOMMES 1,17W000000048485K,8462,49.44639182,4.54892329,Vaux-Champagne,8,Ardennes,44,Grand-Est,2015-05-01 00:00,Eolien,10600,4
Confidentiel,17W000000431300Y,80723,49.9015321,2.118877196,Saisseval,80,Somme,32,Hauts-de-France,2015-04-29 00:00,Eolien,11500,5
TRAMOMARINA,17W000000420089F,51557,48.78838242,4.555127968,Soulanges,51,Marne,44,Grand-Est,2015-04-21 00:00,Eolien,10250,5
PARC A BOIS HUBERT A,17W000000922503N,60364,49.47428267,2.48980639,Lieuvillers,60,Oise,32,Hauts-de-France,2015-04-14 00:00,Eolien,13800,6
PARC B BOIS HUBERT B,17W000000921067M,60364,49.47428267,2.48980639,Lieuvillers,60,Oise,32,Hauts-de-France,2015-04-14 00:00,Eolien,13800,6
CEPE CHARMOIS,17W000000412799H,21065,47.08741659,4.741947037,Bessey-en-Chaume,21,C??te-d'Or,27,Bourgogne-Franche-Comt??,2015-04-11 00:00,Eolien,2000,1
CEPE BOIS DES POISSES,17W000000079415I,21065,47.08741659,4.741947037,Bessey-en-Chaume,21,C??te-d'Or,27,Bourgogne-Franche-Comt??,2015-04-11 00:00,Eolien,4000,2
PARC EOLIEN VALLEE DU DON,17W000000428983P,44091,47.59232704,-1.696517752,Marsac-sur-Don,44,Loire-Atlantique,52,Pays de la Loire,2015-04-11 00:00,Eolien,10000,5
PARC EOLIEN DU GATINAIS 2,17W000000428411X,77297,48.15104973,2.597643554,Mondreville,77,Seine-et-Marne,11,Ile-de-France,2015-04-11 00:00,Eolien,12000,6
CEPE DE BOIS DE LA SERRE NORD,17W000000433125G,11182,43.40608848,2.240160638,Lacombe,11,Aude,76,Occitanie,2015-04-11 00:00,Eolien,12000,6
PARC EOLIEN DES PELURES BLANCHES,17W0000004284846,36199,47.0110072,1.995440562,Sainte-Lizaigne,36,Indre,24,Centre-Val de Loire,2015-04-06 00:00,Eolien,2500,1
P.RI5EA2 - ADP A2 DE LA FERME EOLIENNE DE PEZILLA-LA-RIVIERE (Parc Eolien de VILLEUNEUVE),17W100P100P2465S,66014,42.74542753,2.805697872,Baixas,66,Pyr??n??es-Orientales,76,Occitanie,2015-04-06 00:00,Eolien,8000,3
PARC EOLIEN D AUBIGEON,17W000000043706I,36199,47.0110072,1.995440562,Sainte-Lizaigne,36,Indre,24,Centre-Val de Loire,2015-04-06 00:00,Eolien,12000,5
P.RI5EA1 - ADP A1 DE LA FERME EOLIENNE DE PEZILLA-LA-RIVIERE (Parc Eolien de PEZILLA),17W100P100P0450E,66014,42.74542753,2.805697872,Baixas,66,Pyr??n??es-Orientales,76,Occitanie,2015-04-06 00:00,Eolien,88000,32
PARC EOLIEN  COMES DE L'ARCE,17W000000042121E,10069,48.13717467,4.456057287,Buxi??res-sur-Arce,10,Aube,44,Grand-Est,2015-03-27 00:00,Eolien,10000,5
SNC MSE LE CHAMP VERT,17W0000000467071,60622,49.67490638,2.00347222,Sommereux,60,Oise,32,Hauts-de-France,2015-03-27 00:00,Eolien,12000,6
Confidentiel,17W000000161122Z,62797,50.37074748,2.26790984,Siracourt,62,Pas-de-Calais,32,Hauts-de-France,2015-03-09 00:00,Eolien,6000,2
PARC EOLIEN DU MONT HEUDELAN 3,17W000000044936X,8378,49.29652243,4.434772704,Saint-Cl??ment-??-Arnes,8,Ardennes,44,Grand-Est,2015-03-09 00:00,Eolien,9900,3
FOYE ENERGIES,17W0000004193964,17234,46.0822034,-0.558494277,Migr??,17,Charente-Maritime,75,Nouvelle-Aquitaine,2015-02-24 00:00,Eolien,10250,5
EOLIENNES DE ROYE 1,17W000000164457Q,80685,49.69368999,2.788687577,Roye,80,Somme,32,Hauts-de-France,2015-02-18 00:00,Eolien,11400,4
EOLIENNES DE ROYE 3,17W000000048107F,80685,49.69368999,2.788687577,Roye,80,Somme,32,Hauts-de-France,2015-02-18 00:00,Eolien,11400,4
EOLIENNES DE ROYE 2,17W000000431765R,80685,49.69368999,2.788687577,Roye,80,Somme,32,Hauts-de-France,2015-02-03 00:00,Eolien,11400,4
EOLIENNES DES TROIS ORMES,17W0000004075151,18124,47.06695276,2.076587436,Lazenay,18,Cher,24,Centre-Val de Loire,2015-02-02 00:00,Eolien,16800,7
FERME EOL DE CANEHAN,17W0000000573092,76155,49.97950817,1.343117167,Canehan,76,Seine-Maritime,28,Normandie,2015-01-28 00:00,Eolien,13800,6
SAS CHAOURSE NORD ENERTRAG AISNE III,17W0000000547164,2160,49.70078981,3.985622923,Chaourse,2,Aisne,32,Hauts-de-France,2015-01-23 00:00,Eolien,8000,4
CHAOURSE SUD  ENERTRAG AISNE III,17W000000060348L,2160,49.70078981,3.985622923,Chaourse,2,Aisne,32,Hauts-de-France,2015-01-23 00:00,Eolien,8000,4
FERME EOLIENE ST NICOLAS DES BIEFS,17W0000000507596,3248,46.06322456,3.794606122,Saint-Nicolas-des-Biefs,3,Allier,84,Auvergne-Rh??ne-Alpes,2015-01-21 00:00,Eolien,14266,7
JUSTIEA1 - ADP A1 DE LA FERME EOLIENNE DE JUSTICE (LA) (PARC EOLIEN DE MOULIN D EMANVILLE 1),17W100P100P2742S,28004,48.33163423,1.652004132,Allonnes,28,Eure-et-Loir,24,Centre-Val de Loire,2014-01-06 00:00,Eolien,52275,17
PARCS EOLIENS DE COULOMMES 3,17W000000417923H,8462,49.44639182,4.54892329,Vaux-Champagne,8,Ardennes,44,Grand-Est,2014-12-21 00:00,Eolien,10600,4
PARC EOLIEN DE MOLINONS,17W0000004332715,89261,48.22186707,3.544172975,Molinons,89,Yonne,27,Bourgogne-Franche-Comt??,2014-12-17 00:00,Eolien,10000,5
PARC EOLIEN PREUSEVILLE 1,17W000000416449O,76511,49.88046844,1.505313607,Preuseville,76,Seine-Maritime,28,Normandie,2014-12-16 00:00,Eolien,2000,1
PARC EOLIEN PREUSEVILLE 2,17W000000430066L,76511,49.88046844,1.505313607,Preuseville,76,Seine-Maritime,28,Normandie,2014-12-16 00:00,Eolien,4000,2
FERME EOLIENNE DE LA CHAPELLE LAURENT,17W000000057175Y,15042,45.18372264,3.24249082,La Chapelle-Laurent,15,Cantal,84,Auvergne-Rh??ne-Alpes,2014-12-15 00:00,Eolien,6000,3
PARC EOLIEN VAUX COULOMMES 2,17W000000081223O,8462,49.44639182,4.54892329,Vaux-Champagne,8,Ardennes,44,Grand-Est,2014-12-15 00:00,Eolien,10600,4
LE BAS DES VIGNES,17W000000424675J,10430,48.6429564,4.122661962,Villiers-Herbisse,10,Aube,44,Grand-Est,2014-12-15 00:00,Eolien,12000,6
PARC EOLIEN DE FRESNOY-BRANCOURT,17W000000426665C,2334,49.95407247,3.418580325,Fresnoy-le-Grand,2,Aisne,32,Hauts-de-France,2014-12-11 00:00,Eolien,13800,54
Confidentiel,17W000000164834M,51340,48.73666328,4.467001608,Maisons-en-Champagne,51,Marne,44,Grand-Est,2014-12-09 00:00,Eolien,2000,1
LES JEUNES PERRIERES,17W000000059834A,51340,48.73666328,4.467001608,Maisons-en-Champagne,51,Marne,44,Grand-Est,2014-12-09 00:00,Eolien,14000,7
RENNEVILLE 1,17W000000060020I,8360,49.65081497,4.135690866,Renneville,8,Ardennes,44,Grand-Est,2014-12-06 00:00,Eolien,10250,5
PE BRUYERE 1-MONTBRAY MARGUERAY,17W000000156130H,50338,48.88308103,-1.109307043,Montbray,50,Manche,28,Normandie,2014-12-04 00:00,Eolien,10000,5
SENEV AGENVILLE SARL,17W000000151992P,80005,50.17180323,2.107770267,Agenville,80,Somme,32,Hauts-de-France,2014-12-02 00:00,Eolien,6000,2
Confidentiel,17W0000000488579,10172,48.61518294,4.121611919,Herbisse,10,Aube,44,Grand-Est,2014-11-28 00:00,Eolien,10000,5
PARC DE BEAUMONT SAS,17W000000166192Q,44075,47.61736016,-1.456036849,Iss??,44,Loire-Atlantique,52,Pays de la Loire,2014-11-24 00:00,Eolien,12000,6
PLATEAU D ANDIGNY 2,17W000000148372Q,2769,50.01114725,3.522954002,Vaux-Andigny,2,Aisne,32,Hauts-de-France,2014-11-12 00:00,Eolien,8976,3
EOLE PLATEAU D'ANDIGNY 1,17W000000041439P,2769,50.01114725,3.522954002,Vaux-Andigny,2,Aisne,32,Hauts-de-France,2014-11-12 00:00,Eolien,12000,4
PONTRU 2 FERME DES QUERTERELLES,17W000000146750U,2808,49.9494418,3.187498927,Villeret,2,Aisne,32,Hauts-de-France,2014-11-02 00:00,Eolien,4576,16
BASSE THIERACHE SUD N??2,17W000000053974O,2386,49.95043095,3.665297895,Iron,2,Aisne,32,Hauts-de-France,2014-10-30 00:00,Eolien,11968,4
PARC EOLIEN DE BASSE THIERACHE SUD 1,17W000000428337J,2386,49.95043095,3.665297895,Iron,2,Aisne,32,Hauts-de-France,2014-10-30 00:00,Eolien,11968,4
Confidentiel,17W000000040601A,50239,49.12217771,-1.170476443,Th??reval,50,Manche,28,Normandie,2014-10-28 00:00,Eolien,516,2
EOLIENNES DE FRELIGNE,17W0000001597266,44206,46.90650133,-1.679690334,Touvois,44,Loire-Atlantique,52,Pays de la Loire,2014-10-28 00:00,Eolien,8200,4
Confidentiel,17W000000395013P,21679,47.31424264,4.672843817,Vieilmoulin,21,C??te-d'Or,27,Bourgogne-Franche-Comt??,2014-10-20 00:00,Eolien,12000,6
LE CHAMP DES ANES,17W000000044774X,89283,47.6575722,3.419203402,Ouanne,89,Yonne,27,Bourgogne-Franche-Comt??,2014-10-16 00:00,Eolien,9200,5
Confidentiel,17W0000004208712,89283,47.6575722,3.419203402,Ouanne,89,Yonne,27,Bourgogne-Franche-Comt??,2014-10-16 00:00,Eolien,11500,5
